[{"id":1424,"title":"\u65e5\u672c\u6a4b","lat":35.684049,"lng":139.774462,"description":"\u6176\u9577\u516b\u5e74\uff081603\u5e74\uff09\u306b\u67b6\u3051\u3089\u308c\u305f\u3002\u4e94\u8857\u9053\u3059\u3079\u3066\u306e\u8d77\u70b9\u3067\u3042\u308a\u3001\u6c5f\u6238\u306e\u6d77\u4e0a\u4ea4\u901a\u306e\u62e0\u70b9\u3060\u3063\u305f\u3002\u5bcc\u58eb\u5c71\u3084\u6c5f\u6238\u57ce\u3001\u671d\u65e5\u3092\u671b\u3081\u308b\u30dd\u30a4\u30f3\u30c8\u3067\u3082\u3042\u308a\u3001\u305d\u308c\u304c\u65e5\u672c\u6a4b\u306e\u540d\u306e\u7531\u6765\u306b\u3082\u306a\u3063\u305f\u3002\u5468\u56f2\u306b\u306f\u5546\u5e97\u304c\u8ed2\u3092\u4e26\u3079\u3001\u65e5\u672c\u6700\u5927\u306e\u7e41\u83ef\u8857\u3068\u3057\u3066\u767a\u5c55\u3057\u305f\u3002\u4f55\u5ea6\u3082\u706b\u707d\u306a\u3069\u306b\u3042\u3063\u3066\u6539\u7bc9\u30fb\u4fee\u7bc9\u304c\u7e70\u308a\u8fd4\u3055\u308c\u3001\u73fe\u5728\u306e\u3082\u306e\u306f\u660e\u6cbb\u56db\u5341\u56db\u5e74\uff081911\u5e74\uff09\u306b\u67b6\u3051\u3089\u308c\u305f19\u4ee3\u76ee\u306e\u6a4b\u3067\u3042\u308b\u3002\u6a4b\u306e\u771f\u3093\u4e2d\u306b\u306f\u300c\u65e5\u672c\u56fd\u9053\u8def\u5143\u6a19\u300d\u304c\u57cb\u3081\u8fbc\u307e\u308c\u3066\u3044\u308b\u3002\r\n\u5185\u85e4\u65b0\u5bbf\u307e\u3067\u7d047km","category":"\u540d\u6240","image":null},{"id":1425,"title":"\u5317\u753a\u5949\u884c\u6240","lat":35.682105,"lng":139.769599,"description":"\u5929\u4fdd\u5341\u4e00\u5e74\uff081840\u5e74\uff09\u304b\u30893\u5e74\u9593\u3001\u9060\u5c71\u5de6\u885b\u9580\u5c09\u666f\u5143\uff08\u901a\u79f0\uff1d\u91d1\u3055\u3093\uff09\u304c\u4efb\u52d9\u306b\u3042\u305f\u3063\u3066\u3044\u305f\u3002\r\n\u73fe\u5728\u3001\u6771\u4eac\u99c5\u5317\u53e3\u901a\u8def\u306e\u5927\u4e38\u306b\u306f\r\n\u300c\u5949\u884c\u6240\u8de1\u300d\u306e\u6a19\u8b58\u304c\u3042\u308b\u3002\r\n\u6771\u4eac\u99c5\u5317\u53e3\u901a\u8def\u304b\u3089\u8fc2\u56de\u3059\u308b\u3068\u898b\u308b\u3053\u3068\u304c\u51fa\u6765\u308b\u3002","category":"\u540d\u6240","image":null},{"id":1426,"title":"\u6c5f\u6238\u57ce","lat":35.685901,"lng":139.756672,"description":"\u9577\u7984\u5143\u5e74\uff081457\u5e74\uff09\u592a\u7530\u9053\u704c\u304c\u7bc9\u57ce\u3057\u3001\u5929\u6b63\u5341\u516b\u5e74\uff081590\u5e74\uff09\u306b\u5317\u6761\u6c0f\u304c\u6ec5\u3076\u3068\u5fb3\u5ddd\u5bb6\u5eb7\u304c\u5165\u57ce\u3002\u4ee5\u5f8c\u306f\u5fb3\u5ddd\u5bb6\u306e\u5c45\u57ce\u3001\u6c5f\u6238\u5e55\u5e9c\u306e\u958b\u5e55\u5f8c\u306f\u5e55\u5e9c\u306e\u653f\u5e81\u3068\u306a\u308b\u3002\u7dcf\u69cb\u5468\u56f2\u7d044\u91cc\u3068\u3001\u65e5\u672c\u6700\u5927\u306e\u9762\u7a4d\u306e\u57ce\u90ed\u3060\u3063\u305f\u3002\r\n\u660e\u6cbb\u7dad\u65b0\u5f8c\u306f\u7687\u5c45\u3068\u306a\u308a\u3001\u73fe\u5728\u306f\u5439\u4e0a\u5ead\u5712\u304c\u5fa1\u6240\u3001\u65e7\u6c5f\u6238\u57ce\u897f\u30ce\u4e38\u304c\u5bae\u6bbf\u306e\u6577\u5730\u3068\u306a\u3063\u3066\u3044\u308b\u3002\u305d\u306e\u6771\u5074\u306b\u3042\u308b\u65e7\u6c5f\u6238\u57ce\u306e\u4e2d\u5fc3\u90e8\u3067\u3042\u308b\u672c\u4e38\u30fb\u4e8c\u30ce\u4e38\u3068\u4e09\u30ce\u4e38\u306e\u8de1\u306f\u7687\u5c45\u6771\u5fa1\u82d1\u3068\u3057\u3066\u958b\u653e\u3055\u308c\u3066\u3044\u308b\u3002","category":"\u540d\u6240","image":null},{"id":1427,"title":"\u65e5\u6bd4\u8c37\u898b\u9644","lat":35.675047,"lng":139.759142,"description":"\u6c5f\u6238\u57ce\u65e5\u6bd4\u8c37\u5fa1\u9580\u306e\u4e00\u90e8\u3002\r\n\u77f3\u57a3\u306e\u4e00\u90e8\u304c\u6b8b\u3063\u3066\u304a\u308a\u898b\u9644\u8de1\u6a19\u67f1\u304c\u5efa\u3066\u3089\u308c\u3066\u3044\u308b\u3002\r\n\u65e5\u6bd4\u8c37\u516c\u5712\u306f\u934b\u5cf6\u3001\u6bdb\u5229\u3001\u5357\u90e8\u85e9\u306e\u5927\u540d\u5c4b\u6577\u8de1\u3002","category":"\u540d\u6240","image":null},{"id":1428,"title":"\u685c\u7530\u9580","lat":35.678481,"lng":139.753641,"description":"\u897f\u306e\u4e38\u5357\u897f\u5185\u6fe0\u306e\u4e00\u3064\u3067\u3001\u5bdb\u6587\u4e09\u5e74\uff081663\u5e74\uff09\u306b\u5efa\u7acb\u3055\u308c\u305f\u685d\u5f62\u9580\u3002\r\n\u8fb0\u5df1\u6ad3\u306e\u897f\u306b\u3042\u308b\u5185\u685c\u7530\u9580\uff08\u6854\u6897\u9580\uff09\u306b\u5bfe\u3057\u3066\u5916\u685c\u7530\u9580\u3068\u3082\u547c\u3070\u308c\u308b\u3002\r\n\u5b89\u653f\u4e03\u5e74\uff081860\u5e74\uff09\u3001\u5927\u8001\u4e95\u4f0a\u76f4\u5f3c\u304c\u6c34\u6238\u6d6a\u58eb\u7b49\u306b\u6697\u6bba\u3055\u308c\u305f\u4e8b\u4ef6\u3067\u3082\u6709\u540d\u3002","category":"\u540d\u6240","image":null},{"id":1429,"title":"\u96bc\u753a\u4e00\u91cc\u585a","lat":35.683038,"lng":139.743921,"description":"\u65e5\u672c\u6a4b\u304b\u30891\u756a\u76ee\u306e\u4e00\u91cc\u585a\r\n\r\n\u25cb\u75d5\u8de1\u306a\u3057\uff08\u3053\u306e\u3042\u305f\u308a\u3060\u3068\u63a8\u6e2c\uff09","category":"\u4e00\u91cc\u585a","image":null},{"id":1430,"title":"\u534a\u8535\u9580","lat":35.683757,"lng":139.745568,"description":"\u4f0a\u8cc0\u5fcd\u8005\u306e\u68df\u6881\u3067\u3042\u308b\u670d\u90e8\u534a\u8535\u306e\u7d44\u5c4b\u6577\u304c\u9580\u5916\u306b\u3042\u3063\u305f\u4e8b\u306b\u7531\u6765\u3057\u3066\u3044\u308b\u3002\r\n\u6c5f\u6238\u57ce\u306b\u5371\u6a5f\u304c\u8feb\u3063\u305f\u969b\u306b\u306f\u3001\u3053\u306e\u534a\u8535\u9580\u304b\u3089\u4f0a\u8cc0\u8005\u306e\u624b\u5f15\u304d\u306b\u3088\u308a\u5c06\u8ecd\u306f\u6c5f\u6238\u57ce\u3092\u8131\u51fa\u3057\u3001\u516b\u738b\u5b50\u306e\u5343\u4eba\u540c\u5fc3\u306b\u8eab\u8fba\u3092\u5b88\u8b77\u3055\u305b\u7532\u5e9c\u306b\u5165\u308a\u3001\u5bcc\u58eb\u5ddd\uff08\u91dc\u7121\u5ddd\uff09\u306e\u821f\u904b\u306b\u3066\u99ff\u5e9c\u306b\u5e30\u9084\u3059\u308b\u30e9\u30a4\u30d5\u30e9\u30a4\u30f3\u304c\u6574\u3048\u3089\u308c\u3066\u3044\u305f\u3002","category":"\u540d\u6240","image":null},{"id":1431,"title":"\u56db\u8c37\u898b\u9644","lat":35.68621,"lng":139.73118,"description":"\u5bdb\u6c38\u5341\u516d\u5e74\uff081639\u5e74\uff09\u7bc9\u9020\u3002\u898b\u9644\u77f3\u57a3\u3092\u6b8b\u3057\u3066\u3044\u308b\u3002","category":"\u540d\u6240","image":null},{"id":1432,"title":"\u56db\u8c37\u5927\u6728\u6238","lat":35.687525,"lng":139.715149,"description":"\u6c5f\u6238\u5e9c\u5185\u306e\u51fa\u5165\u53e3\u3002\r\n\u5927\u6728\u6238\u8de1\u304c\u78ba\u8a8d\u3067\u304d\u308b\u306e\u306f\u3053\u3053\u3068\u9ad8\u8f2a\u5927\u6728\u6238\u306e\u307f\u3002\r\n\uff08\u5927\u6728\u6238\u306e\u5185\u5074\u304c\u6c5f\u6238\u306e\u8857\u3001\u898b\u9644\u306e\u5185\u5074\u304c\u6c5f\u6238\u57ce\u5185\uff09","category":"\u540d\u6240","image":null},{"id":1433,"title":"\u6c5f\u6238\u65b9\uff08\u5185\u85e4\u65b0\u5bbf\uff09","lat":35.688018,"lng":139.713979,"description":"\u65e5\u672c\u6a4b\u307e\u3067\u7d047km","category":"\u898b\u4ed8","image":null},{"id":1434,"title":"\u5185\u85e4\u65b0\u5bbf\uff08\u6a4b\u672c\u672c\u9663\uff09","lat":35.688963,"lng":139.709507,"description":"\u7532\u5dde\u8857\u9053\u306e\u6700\u521d\u306e\u5bbf\u99c5\u306f\u9ad8\u4e95\u6238\u3067\u3042\u3063\u305f\u304c\u3001\u305d\u306e\u8ddd\u96e2\u306f4\u91cc\u3068\u9577\u3044\u305f\u3081\u3001\u5143\u7984\u5341\u4e8c\u5e74\uff081699\u5e74)\u306b\u65b0\u3057\u3044\u5bbf\u99c5\u3092\u958b\u8a2d\u3002\u9ad8\u9060\u85e9\u5185\u85e4\u5bb6\u306e\u6577\u5730\u5185\u306b\u958b\u8a2d\u3055\u308c\u305f\u306e\u3067\u5185\u85e4\u65b0\u5bbf\u3068\u547c\u3070\u308c\u305f\u3002\r\n\u6c5f\u6238\u56db\u5bbf\u306e\u4e00\u3064\u3068\u3057\u3066\u767a\u5c55\u3057\u3001\u3055\u3089\u306b\u306f\u6b53\u697d\u5730\u3068\u3057\u3066\u3082\u7e41\u6804\u3092\u6975\u3081\u3066\u3044\u308b\u3002\r\n\r\n\u25ce\u672c\u96631\u8ed2\u3001\u8107\u672c\u96630\u8ed2\u3001\u65c5\u7c6024\u8ed2\r\n\r\n\u3010\u540d\u7269\u3011\r\n\u7279\u306b\u306a\u3057","category":"\u5bbf\u5834","image":null},{"id":1435,"title":"\u9752\u6885\u8857\u9053\u3068\u306e\u8ffd\u5206","lat":35.690796,"lng":139.704621,"description":"","category":"\u540d\u6240","image":null},{"id":1436,"title":"\u8ffd\u5206\u4e00\u91cc\u585a","lat":35.690689,"lng":139.704868,"description":"\u65e5\u672c\u6a4b\u304b\u30892\u756a\u76ee\u306e\u4e00\u91cc\u585a\r\n\r\n\u25cb\u75d5\u8de1\u306a\u3057\uff08\u3053\u306e\u3042\u305f\u308a\u3060\u3068\u63a8\u6e2c\uff09","category":"\u4e00\u91cc\u585a","image":null},{"id":1437,"title":"\u8acf\u8a2a\u65b9\uff08\u5185\u85e4\u65b0\u5bbf\uff09","lat":35.690035,"lng":139.704095,"description":"\u4e0b\u9ad8\u4e95\u6238\u5bbf\u307e\u3067\u7d047km","category":"\u898b\u4ed8","image":null},{"id":1438,"title":"\u7b39\u585a\u4e00\u91cc\u585a","lat":35.674683,"lng":139.667418,"description":"\u65e5\u672c\u6a4b\u304b\u30893\u756a\u76ee\u306e\u4e00\u91cc\u585a\r\n\r\n\u25cb\u76ee\u5370\u3042\u308a","category":"\u4e00\u91cc\u585a","image":null},{"id":1439,"title":"\u6c5f\u6238\u65b9\uff08\u4e0b\u9ad8\u4e95\u6238\u5bbf\uff09","lat":35.668681,"lng":139.633981,"description":"\u5185\u85e4\u65b0\u5bbf\u307e\u3067\u7d047km","category":"\u898b\u4ed8","image":null},{"id":1440,"title":"\u4e0b\u9ad8\u4e95\u6238\u5bbf\uff08\u51a8\u5409\u672c\u9663\uff09","lat":35.670011,"lng":139.629244,"description":"\u6176\u9577\u4e03\u5e74\uff081602\u5e74\uff09\u306b\u9ad8\u4e95\u6238\u5bbf\u304c\u8a2d\u7f6e\u3055\u308c\u3001\u6176\u9577\u4e5d\u5e74\uff081604\u5e74\uff09\u9ad8\u4e95\u6238\u5bbf\u306f\u4e0a\u4e0b\u9ad8\u4e95\u6238\u5bbf\u306b\u5206\u3051\u3089\u308c\u3001\u4e21\u5bbf\u306f\u5408\u5bbf\u3068\u306a\u308b\u3002\r\n\u4eba\u99ac\u7d99\u7acb\u306e\u696d\u52d9\u306f\u3001\u6708\u306e\u5185\u4e0a\u5341\u4e94\u65e5\u306f\u4e0b\u9ad8\u4e95\u6238\u5bbf\u304c\u3064\u3068\u3081\u3001\u4e0b\u5341\u4e94\u65e5\u306f\u4e0a\u9ad8\u4e95\u6238\u5bbf\u304c\u3064\u3068\u3081\u305f\u3002\r\n\r\n\u25ce\u672c\u96631\u8ed2\u3001\u8107\u672c\u96630\u8ed2\u3001\u65c5\u7c603\u8ed2\r\n\r\n\u3010\u540d\u7269\u3011\r\n\u7279\u306b\u306a\u3057","category":"\u5bbf\u5834","image":null},{"id":1441,"title":"\u8acf\u8a2a\u65b9\uff08\u4e0b\u9ad8\u4e95\u6238\u5bbf\uff09","lat":35.670082,"lng":139.625811,"description":"\u4e0a\u9ad8\u4e95\u6238\u5bbf\u307e\u3067\u7d041km","category":"\u898b\u4ed8","image":null},{"id":1442,"title":"\u9ad8\u4e95\u6238\u4e00\u91cc\u585a","lat":35.670187,"lng":139.625364,"description":"\u65e5\u672c\u6a4b\u304b\u30894\u756a\u76ee\u306e\u4e00\u91cc\u585a\r\n\r\n\u25cb\u76ee\u5370\u3042\u308a","category":"\u4e00\u91cc\u585a","image":null},{"id":1443,"title":"\u6c5f\u6238\u65b9\uff08\u4e0a\u9ad8\u4e95\u6238\u5bbf\uff09","lat":35.671448,"lng":139.616381,"description":"\u4e0b\u9ad8\u4e95\u6238\u5bbf\u307e\u3067\u7d041km","category":"\u898b\u4ed8","image":null},{"id":1444,"title":"\u4e0a\u9ad8\u4e95\u6238\u5bbf\uff08\u6b66\u8535\u5c4b\u672c\u9663\uff09","lat":35.67207,"lng":139.613788,"description":"\u6176\u9577\u4e03\u5e74\uff081602\u5e74\uff09\u306b\u9ad8\u4e95\u6238\u5bbf\u304c\u8a2d\u7f6e\u3055\u308c\u3001\u6176\u9577\u4e5d\u5e74\uff081604\u5e74\uff09\u9ad8\u4e95\u6238\u5bbf\u306f\u4e0a\u4e0b\u9ad8\u4e95\u6238\u5bbf\u306b\u5206\u3051\u3089\u308c\u3001\u4e21\u5bbf\u306f\u5408\u5bbf\u3068\u306a\u308b\u3002\r\n\u4eba\u99ac\u7d99\u7acb\u306e\u696d\u52d9\u306f\u3001\u6708\u306e\u5185\u4e0a\u5341\u4e94\u65e5\u306f\u4e0b\u9ad8\u4e95\u6238\u5bbf\u304c\u3064\u3068\u3081\u3001\u4e0b\u5341\u4e94\u65e5\u306f\u4e0a\u9ad8\u4e95\u6238\u5bbf\u304c\u3064\u3068\u3081\u305f\u3002\r\n\r\n\u25ce\u672c\u96631\u8ed2\u3001\u8107\u672c\u96630\u8ed2\u3001\u65c5\u7c602\u8ed2\r\n\r\n\u3010\u540d\u7269\u3011\r\n\u7279\u306b\u306a\u3057","category":"\u5bbf\u5834","image":null},{"id":1445,"title":"\u8acf\u8a2a\u65b9\uff08\u4e0a\u9ad8\u4e95\u6238\u5bbf\uff09","lat":35.671641,"lng":139.609064,"description":"\u5e03\u75305\u5bbf\u307e\u3067\u7d045km","category":"\u898b\u4ed8","image":null},{"id":1446,"title":"\u4ed9\u5ddd\u4e00\u91cc\u585a","lat":35.663319,"lng":139.583932,"description":"\u65e5\u672c\u6a4b\u304b\u30895\u756a\u76ee\u306e\u4e00\u91cc\u585a\r\n\r\n\u25cb\u76ee\u5370\u3042\u308a","category":"\u4e00\u91cc\u585a","image":null},{"id":1447,"title":"\u6c5f\u6238\u65b9\uff08\u5e03\u75305\u5bbf\uff09","lat":35.650461,"lng":139.556957,"description":"\u4e0a\u9ad8\u4e95\u6238\u5bbf\u307e\u3067\u7d045km","category":"\u898b\u4ed8","image":null},{"id":1448,"title":"\u56fd\u9818\u5bbf","lat":35.650322,"lng":139.55667,"description":"\u6c5f\u6238\u304b\u3089\u3060\u3068\u3001\u5065\u811a\u306e\u4eba\u306f\u516b\u738b\u5b50\u3067\u3001\u666e\u901a\u306e\u4eba\u3067\u3082\u5e9c\u4e2d\u3067\u5bbf\u6cca\u3059\u308b\u306e\u304c\u4e00\u822c\u7684\u3060\u3063\u305f\u3002\u5e03\u7530\u4e94\u5bbf\uff08\u56fd\u9818\u5bbf\u30fb\u4e0b\u5e03\u7530\u5bbf\u30fb\u4e0a\u5e03\u7530\u5bbf\u30fb\u4e0b\u77f3\u539f\u5bbf\u30fb\u4e0a\u77f3\u539f\u5bbf\uff09\u3067\u306f\u5bbf\u6cca\u3059\u308b\u65c5\u4eba\u304c\u5c11\u306a\u304b\u3063\u305f\u306e\u3067\u672c\u9663\u3084\u8107\u672c\u9663\u306f\u306a\u3044\u3002\u554f\u5c4b\u696d\u52d9\u306f\u4e94\u5bbf\u3067\u6301\u3061\u56de\u308a\u3057\u305f\u3002\u56fd\u9818\u5bbf\u306f\u3001\u6708\u306e\u4e8c\u5341\u4e94\u65e5\u304b\u3089\u6666\u65e5\u307e\u3067\u3092\u62c5\u5f53\u3057\u305f\u3002\r\n\r\n\u25ce\u672c\u96630\u8ed2\u3001\u8107\u672c\u96630\u8ed2\u3001\u65c5\u7c602\u8ed2\r\n\r\n\u3010\u540d\u7269\u3011\r\n\u7279\u306b\u306a\u3057","category":"\u5bbf\u5834","image":null},{"id":1449,"title":"\u4e0b\u5e03\u7530\u5bbf","lat":35.651119,"lng":139.55122,"description":"\u4e0b\u5e03\u7530\u5bbf\u306f\u3001\u6708\u306e\u5341\u4e5d\u65e5\u304b\u3089\u4e8c\u5341\u56db\u65e5\u307e\u3067\u554f\u5c4b\u696d\u52d9\u3092\u62c5\u5f53\u3057\u305f\u3002\r\n\r\n\u25ce\u672c\u96630\u8ed2\u3001\u8107\u672c\u96630\u8ed2\u3001\u65c5\u7c603\u8ed2\r\n\r\n\u3010\u540d\u7269\u3011\r\n\u7279\u306b\u306a\u3057","category":"\u5bbf\u5834","image":null},{"id":1450,"title":"\u4e0a\u5e03\u7530\u5bbf","lat":35.653033,"lng":139.544268,"description":"\u4e0a\u5e03\u7530\u5bbf\u306f\u3001\u6708\u306e\u5341\u4e09\u65e5\u304b\u3089\u5341\u516b\u65e5\u307e\u3067\u554f\u5c4b\u696d\u52d9\u3092\u62c5\u5f53\u3057\u305f\u3002\r\n\r\n\u25ce\u672c\u96630\u8ed2\u3001\u8107\u672c\u96630\u8ed2\u3001\u65c5\u7c601\u8ed2\r\n\r\n\u3010\u540d\u7269\u3011\r\n\u7279\u306b\u306a\u3057","category":"\u5bbf\u5834","image":null},{"id":1451,"title":"\u5c0f\u5cf6\u4e00\u91cc\u585a","lat":35.653966,"lng":139.541626,"description":"\u65e5\u672c\u6a4b\u304b\u30896\u756a\u76ee\u306e\u4e00\u91cc\u585a\r\n\r\n\u25cb\u76ee\u5370\u3042\u308a","category":"\u4e00\u91cc\u585a","image":null},{"id":1452,"title":"\u4e0b\u77f3\u539f\u5bbf","lat":35.654624,"lng":139.539,"description":"\u4e0b\u77f3\u539f\u5bbf\u306f\u3001\u6708\u306e\u4e03\u65e5\u3088\u308a\u5341\u4e8c\u65e5\u307e\u3067\u554f\u5c4b\u696d\u52d9\u3092\u62c5\u5f53\u3057\u305f\u3002\r\n\r\n\u25ce\u672c\u96630\u8ed2\u3001\u8107\u672c\u96630\u8ed2\u3001\u65c5\u7c600\u8ed2\r\n\r\n\u3010\u540d\u7269\u3011\r\n\u7279\u306b\u306a\u3057","category":"\u5bbf\u5834","image":null},{"id":1453,"title":"\u4e0a\u77f3\u539f\u5bbf","lat":35.65815,"lng":139.531195,"description":"\u6c5f\u6238\u304b\u3089\u3060\u3068\u3001\u5065\u811a\u306e\u4eba\u306f\u516b\u738b\u5b50\u3067\u3001\u666e\u901a\u306e\u4eba\u3067\u3082\u5e9c\u4e2d\u3067\u5bbf\u6cca\u3059\u308b\u306e\u304c\u4e00\u822c\u7684\u3060\u3063\u305f\u3002\u5e03\u7530\u4e94\u5bbf\uff08\u56fd\u9818\u5bbf\u30fb\u4e0b\u5e03\u7530\u5bbf\u30fb\u4e0a\u5e03\u7530\u5bbf\u30fb\u4e0b\u77f3\u539f\u5bbf\u30fb\u4e0a\u77f3\u539f\u5bbf\uff09\u3067\u306f\u5bbf\u6cca\u3059\u308b\u65c5\u4eba\u304c\u5c11\u306a\u304b\u3063\u305f\u306e\u3067\u3001\u672c\u9663\u3084\u8107\u672c\u9663\u306f\u306a\u3044\u3002\u554f\u5c4b\u696d\u52d9\u306f\u4e94\u5bbf\u3067\u6301\u3061\u56de\u308a\u3057\u305f\u3002\u4e0a\u77f3\u539f\u5bbf\u306f\u3001\u6708\u306e\u4e00\u65e5\u304b\u3089\u516d\u65e5\u307e\u3067\u3092\u62c5\u5f53\u3057\u305f\u3002\r\n\r\n\u25ce\u672c\u96630\u8ed2\u3001\u8107\u672c\u96630\u8ed2\u3001\u65c5\u7c604\u8ed2\r\n\r\n\u3010\u540d\u7269\u3011\r\n\u7279\u306b\u306a\u3057","category":"\u5bbf\u5834","image":null},{"id":1454,"title":"\u8acf\u8a2a\u65b9\uff08\u5e03\u75305\u5bbf\uff09","lat":35.658655,"lng":139.530403,"description":"\u5e9c\u4e2d\u5bbf\u307e\u3067\u7d044.5km","category":"\u898b\u4ed8","image":null},{"id":1455,"title":"\u897f\u5149\u5bfa","lat":35.658104,"lng":139.529741,"description":"\u65b0\u64b0\u7d44\u5c40\u9577 \u8fd1\u85e4\u52c7\u306e\u5750\u50cf\u304c\u3042\u308b\u3002\r\n\u4e0a\u77f3\u539f\u306f\u8fd1\u85e4\u52c7\u306e\u51fa\u8eab\u5730\u3002\r\n\uff08\u751f\u5bb6\u306f\u4eba\u898b\u8857\u9053\u6cbf\u3044\uff09","category":"\u540d\u6240","image":null},{"id":1456,"title":"\u7532\u5dde\u53e4\u9053\uff08\u98db\u7530\u7d66\uff09","lat":35.661722,"lng":139.522735,"description":"\u8c9e\u4eab\u5143\u5e74\uff081684\u5e74\uff09\u9803\u307e\u3067\u306e\u7532\u5dde\u8857\u9053\u3002\r\n\u6c5f\u6238\u6642\u4ee3\u306e\u521d\u671f\u306f\u3001\u98db\u7530\u7d66\u304b\u3089\u65e5\u91ce\u307e\u3067\u306e\u7532\u5dde\u8857\u9053\u306f\u3053\u306e\u9053\u3092\u901a\u3063\u3066\u3044\u305f\u3002\r\n\u3088\u3063\u3066\u3001\u9593\u306b\u3042\u308b\u4e00\u91cc\u585a\u306f\u53e4\u9053\u6cbf\u3044\u306b\u3042\u308b\u3002","category":"\u6d6e\u4e16\u7d75\u30dd\u30a4\u30f3\u30c8","image":null},{"id":1457,"title":"\u5e38\u4e45\u4e00\u91cc\u585a","lat":35.667721,"lng":139.500648,"description":"\u65e5\u672c\u6a4b\u304b\u30897\u756a\u76ee\u306e\u4e00\u91cc\u585a\r\n\r\n\u25cb\u76ee\u5370\u3042\u308a\r\n\r\n\u5e9c\u4e2d\u5e02\u53f2\u8de1","category":"\u4e00\u91cc\u585a","image":null},{"id":1458,"title":"\u6c5f\u6238\u65b9\uff08\u5e9c\u4e2d\u5bbf\uff09","lat":35.669895,"lng":139.483402,"description":"\u5e03\u75305\u5bbf\u307e\u3067\u7d044.5km","category":"\u898b\u4ed8","image":null},{"id":1459,"title":"\u4e80\u7530\u5c4b","lat":35.67009,"lng":139.477843,"description":"\u5609\u6c38\u5e74\u9593\u304b\u3089\u7d9a\u304f\u8001\u8217\u548c\u83d3\u5b50\u5c4b\u3002\r\n\u5e97\u5148\u306e\u770b\u677f\u300c\u5e9c\u4e2d\u540d\u7269 \u9b8e\u3082\u306a\u304b\u300d\u306f\u3001\u6587\u8c6a\u30fb\u6b66\u8005\u5c0f\u8def\u5b9f\u7be4\u304c\u66f8\u3044\u305f\u3082\u306e\u3002","category":"\u540d\u6240","image":null},{"id":1460,"title":"\u4e2d\u4e45\u672c\u5e97","lat":35.670026,"lng":139.476638,"description":"\u4e07\u5ef6\u5143\u5e74\uff081860\u5e74\uff09\u5275\u696d\u306e\u8001\u8217\u9152\u5c4b\u3002\r\n\u5e9c\u4e2d\u306e\u5730\u9152\u300c\u56fd\u5e9c\u9db4\u300d\u3084\u5927\u570b\u9b42\u795e\u793e\u306e\u300c\u5fa1\u795e\u9152\u300d\u3092\u88fd\u9020\u30fb\u8ca9\u58f2\u3057\u3066\u3044\u308b\u3002","category":"\u540d\u6240","image":null},{"id":1461,"title":"\u5927\u56fd\u9b42\u795e\u793e","lat":35.667647,"lng":139.478972,"description":"\u666f\u884c\u5929\u7687\u56db\u5341\u4e00\u5e74(111\u5e74)\u306e\u5275\u7940\u3068\u4f1d\u3048\u3089\u308c\u308b\u90fd\u5185\u5c48\u6307\u306e\u53e4\u793e\u3067\u3042\u308b\u3002\r\n\u5927\u5316\u306e\u6539\u65b0\uff08645\u5e74\uff09\u306e\u3068\u304d\u3001\u6b66\u8535\u306e\u56fd\u5e9c\u3092\u3053\u306e\u5730\u306b\u7f6e\u304f\u3088\u3046\u306b\u306a\u308a\u3001 \u3053\u306e\u793e\u3092\u56fd\u306e\u658e\u5834\u3068\u3057\u3001\u56fd\u53f8\u304c\u3001\u56fd\u5185\u306e\u796d\u52d9\u3092\u7dcf\u8f44\u3059\u308b\u6240\u3068\u306a\u3063\u305f\u3002\r\n\u5f8c\u306b\u672c\u6bbf\u306e\u4e21\u5074\u306b\u56fd\u5185\u8457\u540d\u306e\u795e\u3001\u516d\u6240\uff3b\u308d\u304f\u3057\u3087\uff3d\uff08\u5c0f\u91ce\u5927\u795e\u30fb\u5c0f\u6cb3\u5927\u795e\u30fb\u6c37\u5ddd\u5927\u795e\u30fb \u79e9\u7236\u5927\u795e\u30fb\u91d1\u4f50\u5948\u5927\u795e\u30fb\u6749\u5c71\u5927\u795e\uff09\u304b\u3089\u3001\u516d\u6240\u5bae\u3068\u547c\u3070\u308c\u308b\u3088\u3046\u306b\u306a\u308b\u3002\u672c\u6bbf\u306f\u5bdb\u6587\u4e03\u5e74(1667\u5e74)\u306b\u4e94\u4ee3\u5c06\u8ecd\u7db1\u5409\u306b\u3088\u3063\u3066\u518d\u5efa\u3055\u308c\u305f\u3082\u306e\u3002","category":"\u540d\u6240","image":null},{"id":1462,"title":"\u9ad8\u672d\u5834","lat":35.669841,"lng":139.476652,"description":"\u4eca\u3082\u73fe\u5b58\u3057\u3066\u3044\u308b\u3002","category":"\u540d\u6240","image":null},{"id":1463,"title":"\u5e9c\u4e2d\u5bbf\uff08\u5927\u5e84\u5c4b\u672c\u9663\uff09","lat":35.668331,"lng":139.477193,"description":"\u304b\u3064\u3066\u306f\u6b66\u8535\u56fd\u306e\u56fd\u5e9c\u304c\u7f6e\u304b\u308c\u305f\u5834\u6240\u3067\u3042\u3063\u305f\u304c\u3001\u938c\u5009\u5e55\u5e9c\u306e\u5d29\u58ca\u3067\u8870\u9000\u3002\r\n\u6c5f\u6238\u6642\u4ee3\u306b\u5165\u308b\u3068\u518d\u3073\u7532\u5dde\u8857\u9053\u306e\u5bbf\u5834\u753a\u3068\u3057\u3066\u3001\u3042\u308b\u3044\u306f\u591a\u6469\u5730\u533a\u306e\u5546\u696d\u306e\u4e2d\u5fc3\u5730\u3068\u3057\u3066\u8cd1\u308f\u3044\u3092\u53d6\u308a\u623b\u3057\u305f\u5bbf\u5834\u3067\u3042\u308b\u3002\u938c\u5009\u6642\u4ee3\u304b\u3089\u6c5f\u6238\u6642\u4ee3\u521d\u671f\u306e\u8857\u9053\u306f\u3001\u73fe\u5728\u3088\u308a\u3082\u5357\u5074\u3092\u901a\u3063\u3066\u3044\u305f\u305f\u3081\u3001\u5e9c\u4e2d\u672c\u753a\u3068\u3057\u3066\u6b8b\u3063\u3066\u3044\u308b\u3002\r\n\r\n\u25ce\u672c\u96631\u8ed2\u3001\u8107\u672c\u96632\u8ed2\u3001\u65c5\u7c6029\u8ed2\r\n\r\n\u3010\u540d\u7269\u3011\r\n\u7279\u306b\u306a\u3057","category":"\u5bbf\u5834","image":null},{"id":1464,"title":"\u9ad8\u5b89\u5bfa","lat":35.669565,"lng":139.471902,"description":"\u5e73\u5b89\u6642\u4ee3\u306b\u5efa\u7acb\u3055\u308c\u305f\u3002\u6e90\u7fa9\u7d4c\u3082\u3053\u306e\u5bfa\u306b\u7acb\u3061\u5bc4\u3063\u3066\u6b66\u8535\u574a\u5f01\u6176\u304c\u5927\u822c\u82e5\u7d4c\u3092\u66f8\u304d\u5199\u3057\u305f\u3068\u8a00\u308f\u308c\u3066\u3044\u308b\u3002\u5357\u5317\u671d\u6642\u4ee3\u306b\u306f\u3001\u65b0\u7530\u7fa9\u8c9e\u304c\u5206\u500d\u6cb3\u539f\u306e\u5408\u6226\u3067\u3053\u3053\u306b\u672c\u9663\u3092\u69cb\u3048\u3001\u4e00\u9023\u306e\u6226\u4e71\u306b\u3088\u3063\u3066\u5bfa\u304c\u708e\u4e0a\u3059\u308b\u306a\u3069\u3057\u3066\u8352\u5ec3\u3057\u3066\u3057\u307e\u3063\u305f\u304c\u3001\u8db3\u5229\u5c0a\u6c0f\u304c\u5b89\u56fd\u5bfa\u306e\u4e00\u3064\u3068\u3057\u3066\u3053\u306e\u5bfa\u3092\u4f4d\u7f6e\u3065\u3051\u3001\u5ba4\u753a\u5e55\u5e9c\u306e\u4fdd\u8b77\u3092\u624b\u539a\u304f\u53d7\u3051\u305f\u3002\u5f8c\u3082\u6226\u8853\u4e0a\u306e\u8981\u5730\u3068\u3057\u3066\u3001\u6b74\u4ee3\u306e\u938c\u5009\u516c\u65b9\u306a\u3069\u306e\u9663\u6240\u3068\u3057\u3066\u4f7f\u7528\u3055\u308c\u305f\u3002\u73fe\u5728\u306e\u672c\u5802\u306f\u4eab\u548c\u4e09\u5e74\uff081803\u5e74\uff09\u306e\u518d\u5efa\u3002","category":"\u540d\u6240","image":null},{"id":1465,"title":"\u8acf\u8a2a\u65b9\uff08\u5e9c\u4e2d\u5bbf\uff09","lat":35.670216,"lng":139.469214,"description":"\u65e5\u91ce\u5bbf\u307e\u3067\u7d048km","category":"\u898b\u4ed8","image":null},{"id":1466,"title":"\u672c\u5bbf\u4e00\u91cc\u585a","lat":35.667931,"lng":139.456281,"description":"\u65e5\u672c\u6a4b\u304b\u30898\u756a\u76ee\u306e\u4e00\u91cc\u585a\r\n\r\n\u25cb\u76ee\u5370\u3042\u308a\r\n\r\n\u5e9c\u4e2d\u5e02\u53f2\u8de1","category":"\u4e00\u91cc\u585a","image":null},{"id":1467,"title":"\u8c37\u4fdd\u5929\u6e80\u5bae","lat":35.680136,"lng":139.443669,"description":"\u83c5\u539f\u9053\u771f\u304c\u7940\u3089\u308c\u3066\u3044\u308b\u3001\u6e6f\u5cf6\u5929\u795e\u3001\u4e80\u6238\u5929\u795e\u3068\u4e26\u3076\u95a2\u6771\u4e09\u5927\u5929\u795e\u306e\u4e00\u3064\u3002\r\n\u8c9e\u4eab\u5143\u5e74\uff081684\u5e74\uff09\u4ee5\u964d\u306e\u7532\u5dde\u8857\u9053\u306f\u5d16\u306e\u4e0a\u5074\u306b\u9020\u3089\u308c\u305f\u306e\u3067\u3001\u53c2\u9053\u306b\u5165\u308b\u306b\u306f\u6a2a\u304b\u3089\u5165\u3063\u3066\u5d16\u3092\u4e0b\u308a\u3001\u76f4\u89d2\u306b\u66f2\u304c\u308b\u3053\u3068\u306b\u306a\u308b\u3002","category":"\u540d\u6240","image":null},{"id":1468,"title":"\u4e07\u9858\u5bfa\u306e\u6e21\u3057","lat":35.679613,"lng":139.423373,"description":"\u6c5f\u6238\u6642\u4ee3\u521d\u671f\u306e\u7532\u5dde\u53e4\u9053\u306f\u3001\u3053\u3053\u304b\u3089\u5ddd\u3092\u6e21\u3063\u3066\u5bfe\u5cb8\u306e\u4e07\u9858\u5bfa\u306b\u51fa\u3066\u65e5\u91ce\u5bbf\u306b\u5165\u3063\u305f\u3002\r\n\u8aac\u660e\u677f\u304c\u7acb\u3063\u3066\u3044\u308b\u3002\uff08\u8c37\u4fdd\u306e\u6e21\u3057\uff09","category":"\u540d\u6240","image":null},{"id":1469,"title":"\u65e5\u91ce\u306e\u6e21\u3057","lat":35.686308,"lng":139.410629,"description":"\u6c34\u91cf\u306e\u591a\u30443\u6708\u304c\u304b10\u6708\u306f\u6e21\u3057\u8239\u3067\u3001\u5c11\u306a\u304410\u6708\u304b\u30893\u6708\u307e\u3067\u306f\u4eee\u6a4b\u304c\u67b6\u3051\u3089\u308c\u305f\u3002\r\n\u65e5\u91ce\u306e\u6e21\u3057\u7891\u304c\u3042\u308b\u3002","category":"\u540d\u6240","image":null},{"id":1470,"title":"\u7532\u5dde\u53e4\u9053\uff08\u65e5\u91ce\uff09","lat":35.677397,"lng":139.403163,"description":"\u8c9e\u4eab\u5143\u5e74\uff081684\u5e74\uff09\u9803\u307e\u3067\u306e\u7532\u5dde\u8857\u9053\u3002\r\n\u6c5f\u6238\u6642\u4ee3\u306e\u521d\u671f\u306f\u3001\u98db\u7530\u7d66\u304b\u3089\u65e5\u91ce\u307e\u3067\u306e\u7532\u5dde\u8857\u9053\u306f\u3053\u306e\u9053\u3092\u901a\u3063\u3066\u3044\u305f\u3002\r\n\u3088\u3063\u3066\u3001\u9593\u306b\u3042\u308b\u4e00\u91cc\u585a\u306f\u53e4\u9053\u6cbf\u3044\u306b\u3042\u308b\u3002","category":"\u6d6e\u4e16\u7d75\u30dd\u30a4\u30f3\u30c8","image":null},{"id":1471,"title":"\u4e07\u9858\u5bfa\u4e00\u91cc\u585a","lat":35.674744,"lng":139.415178,"description":"\u65e5\u672c\u6a4b\u304b\u30899\u756a\u76ee\u306e\u4e00\u91cc\u585a\r\n\r\n\u25cb\u76ee\u5370\u3042\u308a\r\n\r\n\u65e5\u91ce\u5e02\u53f2\u8de1","category":"\u4e00\u91cc\u585a","image":null},{"id":1472,"title":"\u6c5f\u6238\u65b9\uff08\u65e5\u91ce\u5bbf\uff09","lat":35.677611,"lng":139.402641,"description":"\u5e9c\u4e2d\u5bbf\u307e\u3067\u7d048km","category":"\u898b\u4ed8","image":null},{"id":1473,"title":"\u65e5\u91ce\u5bbf\uff08\u4f50\u85e4\u672c\u9663\uff09","lat":35.678386,"lng":139.399696,"description":"\u5e9c\u4e2d\u5bbf\u3068\u6a2a\u5c71\u5bbf\u306b\u631f\u307e\u308c\u305f\u5c0f\u3055\u306a\u5bbf\u5834\u3067\u5bbf\u6cca\u306f\u5c11\u306a\u304b\u3063\u305f\u3002\u672c\u9663\u306f\u4e00\u5ea6\u713c\u5931\u3057\u305f\u304c\u90fd\u5185\u306b\u6b8b\u308b\u552f\u4e00\u306e\u672c\u9663\u3067\u3082\u3042\u308b\u3002\u307e\u305f\u3001\u9580\u524d\u306e\u99d0\u8eca\u5834\u3042\u305f\u308a\u306b\u3042\u3063\u305f\u9577\u5c4b\u9580\u3092\u6539\u88c5\u3057\u3066\u4f50\u85e4\u5f66\u4e94\u90ce\u304c\u5929\u7136\u7406\u5fc3\u6d41\u306e\u9053\u5834\u3092\u958b\u3044\u305f\u3002\u51fa\u7a3d\u53e4\u306b\u6765\u3066\u3044\u305f\u306e\u304c\u3001\u5f8c\u306e\u65b0\u64b0\u7d44\u3067\u3042\u308b\u8fd1\u85e4\u52c7\u3001\u571f\u65b9\u6b73\u4e09\u3001\u6c96\u7530\u7dcf\u53f8\u3089\u3067\u3042\u308b\u3002\r\n\r\n\u25ce\u672c\u96631\u8ed2\u3001\u8107\u672c\u96631\u8ed2\u3001\u65c5\u7c6020\u8ed2\r\n\r\n\u3010\u540d\u7269\u3011\r\n\u7279\u306b\u306a\u3057","category":"\u5bbf\u5834","image":null},{"id":1474,"title":"\u8acf\u8a2a\u65b9\uff08\u65e5\u91ce\u5bbf\uff09","lat":35.677794,"lng":139.393211,"description":"\u6a2a\u5c71\u5bbf\u307e\u3067\u7d045.5km","category":"\u898b\u4ed8","image":null},{"id":1475,"title":"\u65e5\u91ce\u53f0\u4e00\u91cc\u585a","lat":35.671096,"lng":139.376584,"description":"\u65e5\u672c\u6a4b\u304b\u308910\u756a\u76ee\u306e\u4e00\u91cc\u585a\r\n\r\n\u25cb\u76ee\u5370\u3042\u308a","category":"\u4e00\u91cc\u585a","image":null},{"id":1476,"title":"\u6d45\u5ddd","lat":35.661593,"lng":139.347571,"description":"\u590f\u5834\u306f\u5f92\u6e21\u308a\u3067\u51ac\u5834\u306f\u4eee\u6a4b\u3067\u6e21\u3063\u3066\u3044\u305f\u3002","category":"\u540d\u6240","image":null},{"id":1477,"title":"\u7af9\u306e\u9f3b\u4e00\u91cc\u585a","lat":35.661957,"lng":139.341852,"description":"\u65e5\u672c\u6a4b\u304b\u308911\u756a\u76ee\u306e\u4e00\u91cc\u585a\r\n\r\n\u25cb\u76ee\u5370\u3042\u308a","category":"\u4e00\u91cc\u585a","image":null},{"id":1478,"title":"\u6c5f\u6238\u65b9\uff08\u6a2a\u5c71\u5bbf\uff09","lat":35.661882,"lng":139.340968,"description":"\u65e5\u91ce\u5bbf\u307e\u3067\u7d045.5km","category":"\u898b\u4ed8","image":null},{"id":1479,"title":"\u6a2a\u5c71\u5bbf\uff08\u65b0\u91ce\u672c\u9663\uff09","lat":35.660179,"lng":139.328948,"description":"15\u306e\u5bbf\u304c\u3042\u3063\u305f\u305f\u3081\u516b\u738b\u5b50\u6a2a\u5c71\u5341\u4e94\u5bbf\u3068\u547c\u3070\u308c\u305f\u3002\u8857\u9053\u4e2d\u6700\u5927\u306e\u5bbf\u3002\u8107\u8857\u9053\u306e\u9663\u99ac\u8857\u9053\u3001\u65e5\u5149\u8107\u5f80\u9084\u3082\u3053\u3053\u304b\u3089\u5206\u5c90\u3059\u308b\u3002\u53e4\u304f\u306f\u516b\u738b\u5b50\u57ce\u306e\u57ce\u4e0b\u753a\u3067\u3042\u3063\u305f\u3002\u5bb6\u5eb7\u306f\u6c5f\u6238\u57ce\u9632\u885b\u306e\u8981\u3068\u3057\u3066\u3001\u65e7\u6b66\u7530\u306e\u5bb6\u81e3\u3092\u53ec\u62b1\u3048\u3053\u3053\u306b\u5343\u4eba\u540c\u5fc3\u3092\u914d\u7f6e\u3057\u305f\u3002\u7a7a\u8972\uff081945\u5e74\uff09\u306b\u3088\u308a\u6b74\u53f2\u7684\u306a\u5efa\u7bc9\u7269\u306f\u307b\u3068\u3093\u3069\u713c\u5931\u3057\u305f\u3002\r\n\r\n\u25ce\u672c\u96632\u8ed2\u3001\u8107\u672c\u96634\u8ed2\u3001\u65c5\u7c6034\u8ed2\r\n\r\n\u3010\u540d\u7269\u3011\r\n\u5f97\u306b\u306a\u3057","category":"\u5bbf\u5834","image":null},{"id":1480,"title":"\u9663\u99ac\u8857\u9053\u3068\u306e\u8ffd\u5206","lat":35.660855,"lng":139.318029,"description":"\u516b\u738b\u5b50\u7a7a\u8972\u30674\u3064\u306b\u5272\u308c\u305f\u3082\u306e\u3092\u30ec\u30d7\u30ea\u30ab\u3068\u5408\u308f\u305b\u3066\u5fa9\u5143\u3002","category":"\u540d\u6240","image":null},{"id":1481,"title":"\u5343\u4eba\u540c\u5fc3\u5c4b\u6577","lat":35.660992,"lng":139.317404,"description":"\u95a2\u516b\u5dde\u9632\u885b\u306e\u62e0\u70b9\u3068\u3057\u3066\u3001\u5fb3\u5ddd\u5bb6\u5eb7\u304c\u7532\u5dde\u6b66\u58eb\u306b\u897f\u5074\u306e\u9632\u885b\u3092\u884c\u308f\u305b\u305f\u306e\u304c\u59cb\u307e\u308a\u3002\r\n\u6700\u76db\u671f\u306b\u306f\u5343\u4eba\u306e\u540c\u5fc3\u3092\u62b1\u3048\u3066\u3044\u305f\u3068\u3044\u3046\u3002\r\n\u300c\u5343\u4eba\u540c\u5fc3\u5c4b\u6577\u8de1\u8a18\u5ff5\u7891\u300d\u304c\u5efa\u3066\u3089\u308c\u3066\u3044\u308b\u3002","category":"\u540d\u6240","image":null},{"id":1482,"title":"\u8acf\u8a2a\u65b9\uff08\u6a2a\u5c71\u5bbf\uff09","lat":35.660741,"lng":139.318728,"description":"\u99d2\u6728\u91ce\u5bbf\u307e\u3067\u7d044km","category":"\u898b\u4ed8","image":null},{"id":1483,"title":"\u6563\u7530\u4e00\u91cc\u585a","lat":35.651066,"lng":139.300154,"description":"\u65e5\u672c\u6a4b\u304b\u308912\u756a\u76ee\u306e\u4e00\u91cc\u585a\r\n\r\n\u25cb\u75d5\u8de1\u306a\u3057\uff08\u3053\u306e\u3042\u305f\u308a\u3060\u3068\u63a8\u6e2c\uff09","category":"\u4e00\u91cc\u585a","image":null},{"id":1484,"title":"\u6c5f\u6238\u65b9\uff08\u99d2\u6728\u91ce\u5bbf\uff09","lat":35.641126,"lng":139.268186,"description":"\u6a2a\u5c71\u5bbf\u307e\u3067\u7d044km","category":"\u898b\u4ed8","image":null},{"id":1485,"title":"\u99d2\u6728\u91ce\u5bbf\uff08\u9234\u6728\u672c\u9663\uff09","lat":35.641398,"lng":139.267021,"description":"\u5c0f\u4f5b\u95a2\u6240\u306e\u7f6e\u304b\u308c\u305f\u5bbf\u5834\u753a\u3067\u3042\u308a\u3001\u95a2\u6240\u305d\u3057\u3066\u5c0f\u4ecf\u5ce0\u3092\u8d8a\u3048\u3088\u3046\u3068\u3059\u308b\u65c5\u4eba\u3001\u307e\u305f\u8d8a\u3048\u3066\u304d\u305f\u65c5\u4eba\u3068\u95a2\u6240\u95a2\u4fc2\u8005\u306e\u305f\u3081\u306e\u5bbf\u5834\u753a\u3067\u3042\u3063\u305f\u3002\r\n\u662d\u548c20\u5e74\uff081945\u5e74\uff09\u306e\u7a7a\u8972\u3067\u713c\u3051\u3066\u3057\u307e\u3063\u305f\u304c\u3001\u308f\u305a\u304b\u306b\u5bbf\u5834\u306e\u9762\u5f71\u3092\u6b8b\u3057\u3066\u3044\u308b\u3002\r\n\r\n\u25ce\u672c\u96631\u8ed2\u3001\u8107\u672c\u96631\u8ed2\u3001\u65c5\u7c6012\u8ed2\r\n\r\n\u3010\u540d\u7269\u3011\r\n\u7279\u306b\u306a\u3057","category":"\u5bbf\u5834","image":null},{"id":1486,"title":"\u5c0f\u4ecf\u95a2\u6240","lat":35.641439,"lng":139.266399,"description":"\u6771\u6d77\u9053\u306e\u7bb1\u6839\u3001\u4e2d\u5c71\u9053\u306e\u7893\u4e95\u3068\u3068\u3082\u306b\u95a2\u6771\u306e\u4e09\u95a2\u6240\u3068\u3044\u308f\u308c\u305f\u3002\r\n\u6226\u56fd\u671f\u3001\u300c\u5bcc\u58eb\u898b\u306e\u95a2\u300d\u3068\u3082\u3044\u308f\u308c\u5c0f\u4ecf\u5ce0\u306b\u7f6e\u304b\u308c\u3066\u3044\u305f\u304c\u3001\u8857\u9053\u4e0a\u4e0d\u4fbf\u3082\u3042\u3063\u3066\u3001\u5143\u548c\u4e8c\u5e74\uff081616\u5e74\uff09\u306b\u99d2\u6728\u91ce\u5bbf\u306b\u79fb\u3055\u308c\u305f\u3002","category":"\u540d\u6240","image":null},{"id":1487,"title":"\u8acf\u8a2a\u65b9\uff08\u99d2\u6728\u91ce\u5bbf\uff09","lat":35.639577,"lng":139.260753,"description":"\u5c0f\u4ecf\u5bbf\u307e\u3067\u7d043km","category":"\u898b\u4ed8","image":null},{"id":1488,"title":"\u99d2\u6728\u91ce\u4e00\u91cc\u585a","lat":35.640466,"lng":139.263022,"description":"\u65e5\u672c\u6a4b\u304b\u308913\u756a\u76ee\u306e\u4e00\u91cc\u585a\r\n\r\n\u25cb\u75d5\u8de1\u306a\u3057\uff08\u3053\u306e\u3042\u305f\u308a\u3060\u3068\u63a8\u6e2c\uff09","category":"\u4e00\u91cc\u585a","image":null},{"id":1489,"title":"\u6c5f\u6238\u65b9\uff08\u5c0f\u4ecf\u5bbf\uff09","lat":35.639627,"lng":139.237472,"description":"\u99d2\u6728\u91ce\u5bbf\u307e\u3067\u7d043km","category":"\u898b\u4ed8","image":null},{"id":1490,"title":"\u5c0f\u4ecf\u5bbf\uff08\u672c\u9663\u306a\u3057\uff09","lat":35.639971,"lng":139.233961,"description":"\u6c5f\u6238\u304b\u3089\u306f\u5c0f\u4ecf\u5ce0\u3092\u63a7\u3048\u3001\u65c5\u7c60\u3082\u5c11\u6570\u3060\u3063\u305f\u3002\u5bbf\u5185\u306e\u4e09\u5ea6\u5c4b\uff08\u9752\u6728\u5bb6\uff09\u306f\u4e09\u5ea6\u98db\u811a\u306e\u5b9a\u5bbf\u3002\u5bbf\u5834\u696d\u52d9\u306f\u99d2\u6728\u91ce\u5bbf\u3068\u5206\u62c5\u3057\u3066\u884c\u3044\u3001\u5c0f\u4ecf\u5bbf\u306f\u67081\u65e5\u304b\u308915\u65e5\u3092\u62c5\u5f53\u3057\u305f\u3002\u300c\u5c0f\u4f5b\u300d\u3068\u3044\u3046\u5730\u540d\u3082\u3001\u5948\u826f\u6642\u4ee3\u306b\u50e7\u884c\u57fa\u304c\u3053\u3053\u306b\u5c0f\u3055\u306a\u4ecf\u3092\u5b89\u7f6e\u3057\u305f\u3053\u3068\u306b\u3088\u308b\u3068\u3055\u308c\u3066\u3044\u308b\u3002\r\n\r\n\u25ce\u672c\u96630\u8ed2\u3001\u8107\u672c\u96630\u8ed2\u3001\u65c5\u7c6011\u8ed2\r\n\r\n\u3010\u540d\u7269\u3011\r\n\u3084\u307e\u3081","category":"\u5bbf\u5834","image":null},{"id":1491,"title":"\u8acf\u8a2a\u65b9\uff08\u5c0f\u4ecf\u5bbf\uff09","lat":35.639817,"lng":139.232526,"description":"\u5c0f\u539f\u5bbf\u307e\u3067\u7d046km","category":"\u898b\u4ed8","image":null},{"id":1492,"title":"\u5c0f\u4ecf\u5ce0\u4e00\u91cc\u585a","lat":35.639172,"lng":139.222405,"description":"\u65e5\u672c\u6a4b\u304b\u308914\u756a\u76ee\u306e\u4e00\u91cc\u585a\r\n\r\n\u25cb\u75d5\u8de1\u306a\u3057\uff08\u3053\u306e\u3042\u305f\u308a\u3060\u3068\u63a8\u6e2c\uff09","category":"\u4e00\u91cc\u585a","image":null},{"id":1493,"title":"\u5c0f\u4ecf\u5ce0\u3000-\u56fd\u5883-","lat":35.636242,"lng":139.216669,"description":"\u6b66\u8535\u56fd\u3068\u76f8\u5dde\u56fd\u3068\u306e\u56fd\u5883\u3002","category":"\u540d\u6240","image":null},{"id":1494,"title":"\u5c0f\u539f\u5bbf\u4e00\u91cc\u585a","lat":35.627453,"lng":139.203649,"description":"\u65e5\u672c\u6a4b\u304b\u308915\u756a\u76ee\u306e\u4e00\u91cc\u585a\r\n\r\n\u25cb\u76ee\u5370\u3042\u308a\r\n\r\n\u300c\u5c0f\u539f\u5bbf\u4e00\u91cc\u585a\u4e0b\u300d\u3068\u3044\u3046\u6a19\u67f1\u304b\u3089\u3057\u3066\u3001\u672c\u6765\u306f\u65e7\u9053\u6cbf\u3044\u306e\u5d16\u4e0a\u306b\u3042\u3063\u305f\u3068\u601d\u308f\u308c\u308b\u3002","category":"\u4e00\u91cc\u585a","image":null},{"id":1495,"title":"\u6c5f\u6238\u65b9\uff08\u5c0f\u539f\u5bbf\uff09","lat":35.622482,"lng":139.200799,"description":"\u5c0f\u4ecf\u5bbf\u307e\u3067\u7d046km","category":"\u898b\u4ed8","image":null},{"id":1496,"title":"\u5c0f\u539f\u5bbf\uff08\u6e05\u6c34\u672c\u9663\uff09","lat":35.621747,"lng":139.200266,"description":"\u7247\u7d99\u304e\u306e\u5bbf\u5834\u3068\u3057\u3066\u3001\u7279\u6b8a\u306a\u7d99\u304e\u7acb\u3066\u3092\u3057\u305f\u3002\uff08\u5c0f\u4ecf\u5bbf\u304b\u3089\u6765\u305f\u4eba\u3084\u8377\u7269\u3092\u3001\u4e0e\u702c\u5bbf\u3092\u901a\u308a\u8d8a\u3057\u3066\u5409\u91ce\u5bbf\u307e\u3067\u7d99\u304e\u7acb\u3066\u308b\u3002\u305d\u306e\u4ee3\u308a\u6c5f\u6238\u306e\u65b9\u3078\u306f\u3001\u4e0e\u702c\u5bbf\u304b\u3089\u5c0f\u539f\u5bbf\u3092\u901a\u308a\u8d8a\u3057\u3066\u5c0f\u4ecf\u5bbf\u3078\u7d99\u304e\u7acb\u3066\u308b\uff09\u660e\u6cbb\u4e8c\u5341\u516b\u5e74\uff081895\u5e74\uff09\u306e\u5927\u706b\u3067\u5bbf\u306f\u713c\u5931\u3057\u305f\u304c\u672c\u9663\u306f\u6b8b\u3063\u305f\u3002\u73fe\u5b58\u3059\u308b3\u5bbf\u306e\u672c\u9663\u306e\u4e00\u3064\u3067\u3042\u308b\u3002\r\n\r\n\u25ce\u672c\u9663\u30fb\u8107\u672c\u9663\u5404\uff11\u8ed2\u3001\u65c5\u7c60\uff17\u8ed2\r\n\r\n\u3010\u540d\u7269\u3011\r\n\u7279\u306b\u306a\u3057","category":"\u5bbf\u5834","image":null},{"id":1497,"title":"\u8acf\u8a2a\u65b9\uff08\u5c0f\u539f\u5bbf\uff09","lat":35.620651,"lng":139.198332,"description":"\u4e0e\u702c\u5bbf\u307e\u3067\u7d041km","category":"\u898b\u4ed8","image":null},{"id":1498,"title":"\u6c5f\u6238\u65b9\uff08\u4e0e\u702c\u5bbf\uff09","lat":35.616796,"lng":139.191535,"description":"\u5c0f\u539f\u5bbf\u307e\u3067\u7d041km","category":"\u898b\u4ed8","image":null},{"id":1499,"title":"\u4e0e\u702c\u5bbf\uff08\u5742\u672c\u672c\u9663\uff09","lat":35.617946,"lng":139.184131,"description":"\u76f8\u6a21\u5ddd\u306e\u6e13\u8c37\u306b\u6cbf\u3063\u305f\u5c0f\u3055\u306a\u5bbf\u5834\u3067\u5c0f\u539f\u5bbf\u3068\u4e00\u6751\u3092\u6210\u3057\u3066\u3044\u305f\u3002\u6728\u6750\u306e\u5ddd\u6d41\u3057\u3084\u821f\u904b\u304c\u76db\u3093\u3060\u3063\u305f\u3002\r\n\u4e0e\u702c\u5bbf\u306f\u3001\u5409\u91ce\u304b\u3089\u6765\u305f\u6b62\u5bbf\u8005\u3092\u5c0f\u539f\u5bbf\u3092\u901a\u308a\u8d8a\u3057\u3066\u5c0f\u4ecf\u3078\u9001\u308b\u4e0a\u308a\u306e\u7247\u7d99\u5bbf\u5834\u3067\u3042\u3063\u305f\u3002\r\n\r\n\u25ce\u672c\u96631\u8ed2\u3001\u8107\u672c\u96630\u8ed2\u3001\u65c5\u7c606\u8ed2\r\n\r\n\u3010\u540d\u7269\u3011\r\n\u9b8e","category":"\u5bbf\u5834","image":null},{"id":1500,"title":"\u8acf\u8a2a\u65b9\uff08\u4e0e\u702c\u5bbf\uff09","lat":35.617801,"lng":139.184036,"description":"\u5409\u91ce\u5bbf\u307e\u3067\u7d043.5km","category":"\u898b\u4ed8","image":null},{"id":1501,"title":"\u4e0e\u702c\u4e00\u91cc\u585a","lat":35.621152,"lng":139.179976,"description":"\u65e5\u672c\u6a4b\u304b\u308916\u756a\u76ee\u306e\u4e00\u91cc\u585a\r\n\r\n\u25cb\u76ee\u5370\u3042\u308a","category":"\u4e00\u91cc\u585a","image":null},{"id":1502,"title":"\u6c5f\u6238\u65b9\uff08\u5409\u91ce\u5bbf\uff09","lat":35.615261,"lng":139.170245,"description":"\u4e0e\u702c\u5bbf\u307e\u3067\u7d043.5km","category":"\u898b\u4ed8","image":null},{"id":1503,"title":"\u5409\u91ce\u5bbf\uff08\u5409\u91ce\u672c\u9663\uff09","lat":35.614085,"lng":139.168812,"description":"\u5c0f\u3055\u306a\u5bbf\u5834\u3060\u304c\u3001\u6c5f\u6238\u3068\u7532\u5e9c\u306e\u4e2d\u9593\u70b9\u3068\u3057\u3066\u6804\u3048\u305f\u3002\r\n\u660e\u6cbb\u4e8c\u5341\u4e5d\u5e74\uff081896\u5e74\uff09\u306b\u5409\u91ce\u5927\u706b\u304c\u767a\u751f\u3002\u5f37\u98a8\u306b\u717d\u3089\u308c\u3066\u77ac\u304f\u9593\u306b\u5409\u91ce\u5bbf\u3092\u706b\u306e\u6d77\u3068\u5316\u3057\u3001\u3042\u3089\u3086\u308b\u7269\u3092\u713c\u304d\u5c3d\u304f\u3057\u3066\u3057\u307e\u3063\u305f\u3002\r\n\u552f\u4e00\u3001\u672c\u9663\u524d\u306e\u571f\u8535\u3060\u3051\u304c\u713c\u304d\u6b8b\u3063\u305f\u3002\r\n\r\n\u25ce\u672c\u96631\u8ed2\u3001\u8107\u672c\u96631\u8ed2\u3001\u65c5\u7c603\u8ed2\r\n\r\n\u3010\u540d\u7269\u3011\r\n\u9b8e","category":"\u5bbf\u5834","image":null},{"id":1504,"title":"\u3075\u3058\u3084","lat":35.613958,"lng":139.168817,"description":"\u683c\u5f0f\u306e\u9ad8\u3044\u65c5\u7c60\u3067\u3042\u3063\u305f\u304c\u660e\u6cbb\u306e\u5927\u706b\u3067\u713c\u5931\u3057\u305f\u3002\r\n\u73fe\u5728\u306f\u90f7\u571f\u8cc7\u6599\u9928\u306b\u306a\u3063\u3066\u3044\u308b\u3002","category":"\u540d\u6240","image":null},{"id":1505,"title":"\u5c0f\u733f\u6a4b","lat":35.613038,"lng":139.165482,"description":"\u7532\u5dde\u8857\u9053\u306e\u540d\u6240\u306e\u4e00\u3064\u306e\u5c0f\u733f\u6a4b\u3002\r\n\u5c0f\u733f\u6a4b\u306f\u4e21\u5cb8\u306b\u5c4b\u6839\u306e\u3088\u3046\u306a\u6a4b\u3052\u305f\u3092\u7a4d\u307f\u4e0a\u3052\u308b\u7532\u6590\u306e\u300c\u733f\u6a4b\u300d\u3068\u540c\u3058\u5de5\u6cd5\u3067\u3042\u308b\u3068\u3053\u308d\u304b\u3089\u4ed8\u3051\u3089\u308c\u305f\u540d\u524d\u3002\r\n\u5c0f\u733f\u6a4b\u306e\u4e0a\u304b\u3089\u306f\u3001\u6edd\u306e\u3088\u3046\u306b\u6d41\u308c\u843d\u3061\u308b\u6ca2\u4e95\u5ddd\u306e\u6025\u6d41\u304c\u898b\u308c\u305f\u3002\r\n\u305d\u306e\u666f\u8272\u306e\u7f8e\u3057\u3055\u304b\u3089\u7d75\u56f3\u306a\u3069\u306b\u3082\u767b\u5834\u3059\u308b\u3002\r\n\u73fe\u5728\u306f\u306a\u3044\u3002","category":"\u540d\u6240","image":null},{"id":1506,"title":"\u8acf\u8a2a\u65b9\uff08\u5409\u91ce\u5bbf\uff09","lat":35.613968,"lng":139.167811,"description":"\u95a2\u91ce\u5bbf\u307e\u3067\u7d042.5km","category":"\u898b\u4ed8","image":null},{"id":1507,"title":"\u85e4\u91ce\u4e00\u91cc\u585a","lat":35.614521,"lng":139.155704,"description":"\u65e5\u672c\u6a4b\u304b\u308917\u756a\u76ee\u306e\u4e00\u91cc\u585a\r\n\r\n\u25cb\u76ee\u5370\u3042\u308a","category":"\u4e00\u91cc\u585a","image":null},{"id":1508,"title":"\u9663\u99ac\u8857\u9053\u3068\u306e\u8ffd\u5206","lat":35.615206,"lng":139.153629,"description":"\u6a2a\u5c71\u516b\u738b\u5b50\u5bbf\u3067\u5206\u304b\u308c\u305f\u3082\u306e\u304c\u5408\u6d41","category":"\u540d\u6240","image":null},{"id":1509,"title":"\u6c5f\u6238\u65b9\uff08\u95a2\u91ce\u5bbf\uff09","lat":35.617744,"lng":139.142525,"description":"\u5409\u91ce\u5bbf\u307e\u3067\u7d042.5km","category":"\u898b\u4ed8","image":null},{"id":1510,"title":"\u95a2\u91ce\u5bbf\uff08\u4e2d\u6751\u672c\u9663\uff09","lat":35.618413,"lng":139.141596,"description":"\u6c5f\u6238\u304b\u3089\u6765\u308b\u3068\u76f8\u6a21\u56fd\u6700\u5f8c\u306e\u5bbf\u5834\u3067\u3042\u3063\u305f\u3002\u5c0f\u3055\u306a\u5bbf\u5834\u3060\u304c\u3001\u660e\u6cbb\u4e8c\u5341\u4e00\u5e74\uff081888\u5e74\uff09\u3068\u305d\u306e\u5f8c\u306e2\u5ea6\u306e\u706b\u707d\u3067\u753a\u4e26\u307f\u306f\u3059\u3079\u3066\u713c\u5931\u3057\u3066\u3057\u307e\u3063\u305f\u3002\r\n\r\n\u25ce\u672c\u96631\u8ed2\u3001\u8107\u672c\u96631\u8ed2\u3001\u65c5\u7c603\u8ed2\r\n\r\n\u3010\u540d\u7269\u3011\r\n\u7279\u306b\u306a\u3057","category":"\u5bbf\u5834","image":null},{"id":1511,"title":"\u8acf\u8a2a\u65b9\uff08\u95a2\u91ce\u5bbf\uff09","lat":35.619044,"lng":139.139604,"description":"\u4e0a\u91ce\u539f\u5bbf\u307e\u3067\u7d043.5km","category":"\u898b\u4ed8","image":null},{"id":1512,"title":"\u5883\u5ddd\u3000-\u56fd\u5883-","lat":35.617561,"lng":139.133857,"description":"\u76f8\u6a21\u56fd\u3068\u7532\u6590\u56fd\u3068\u306e\u56fd\u5883\u3002\r\n\u300c\u5883\u6ca2\u6a4b\u300d","category":"\u540d\u6240","image":null},{"id":1513,"title":"\u8acf\u8a2a\u756a\u6240","lat":35.616387,"lng":139.132379,"description":"\u7532\u6590\uff12\uff14\u95a2\u306e\u4e00\u3064\u3002\r\n\u7532\u6590\u570b\u306e\u6771\u53e3\u306b\u4f4d\u7f6e\u3057\u3001\u901a\u884c\u306e\u65c5\u4eba\u3084\u7269\u8cc7\u3092\u53b3\u3057\u304f\u53d6\u308a\u7de0\u307e\u3063\u305f\u3002\r\n\u3053\u306e\u756a\u6240(\u95a2\u6240\uff09\u306f\u3001\u5f53\u521d\u306f\u3082\u3046\u5c11\u3057\u5148\u306e\u300c\u8acf\u8a2a\u795e\u793e\u300d\u306e\u4e0b\u306b\u7f6e\u304b\u308c\u3066\u3044\u305f\u304c\u3001\u95a2\u6240\u7834\u308a\u304c\u591a\u304b\u3063\u305f\u306e\u3067\u3053\u306e\u5730\u306b\u79fb\u3055\u308c\u305f\u3002","category":"\u540d\u6240","image":null},{"id":1514,"title":"\u585a\u5834\u4e00\u91cc\u585a","lat":35.622698,"lng":139.122441,"description":"\u65e5\u672c\u6a4b\u304b\u308918\u756a\u76ee\u306e\u4e00\u91cc\u585a\r\n\r\n\u25cb\u76ee\u5370\u3042\u308a\r\n\r\n\u4e0a\u91ce\u539f\u5e02\u53f2\u8de1","category":"\u4e00\u91cc\u585a","image":null},{"id":1515,"title":"\u6c5f\u6238\u65b9\uff08\u4e0a\u91ce\u539f\u5bbf\uff09","lat":35.625065,"lng":139.118349,"description":"\u95a2\u91ce\u5bbf\u307e\u3067\u7d043.5km","category":"\u898b\u4ed8","image":null},{"id":1516,"title":"\u4e0a\u91ce\u539f\u5bbf\uff08\u85e4\u7530\u672c\u9663\uff09","lat":35.628065,"lng":139.113175,"description":"\u6c5f\u6238\u304b\u3089\u306f\u7532\u6590\u306e\u56fd\u6700\u521d\u306e\u5bbf\u3002\u3053\u306e\u5730\u306f\u56db\u65b9\u304c\u5d16\u306b\u306a\u3063\u3066\u304a\u308a\u3001\u3053\u306e\u5d16\u306e\u4e0a\u306e\u5e83\u91ce\u3067\u3042\u3063\u305f\u3053\u3068\u304b\u3089\u4e0a\u306e\u539f\u306e\u5730\u540d\u3068\u306a\u3063\u305f\u3002\r\n\u516b\u738b\u5b50\u304b\u3089\u5206\u304b\u308c\u305f\u88cf\u8857\u9053\u30fb\u9663\u99ac\u8857\u9053\u3068\u306e\u5206\u5c90\u70b9\u3067\u3082\u3042\u308b\u3002\r\n\u7d79\u306e\u5e02\u3067\u8cd1\u308f\u3063\u3066\u3044\u305f\u3068\u3044\u3046\u304c\u3001\u7d79\u88fd\u54c1\u306e\u8870\u9000\u3067\u4eca\u306f\u305d\u306e\u9762\u5f71\u306f\u306a\u3044\u3002\r\n\r\n\u25ce\u672c\u96631\u8ed2\u3001\u8107\u672c\u96632\u8ed2\u3001\u65c5\u7c6020\u8ed2\r\n\r\n\u3010\u540d\u7269\u3011\r\n\u7279\u306b\u306a\u3057","category":"\u5bbf\u5834","image":null},{"id":1517,"title":"\u8acf\u8a2a\u65b9\uff08\u4e0a\u91ce\u539f\u5bbf\uff09","lat":35.628815,"lng":139.109618,"description":"\u9db4\u5ddd\u5bbf\u307e\u3067\u7d042km","category":"\u898b\u4ed8","image":null},{"id":1518,"title":"\u9db4\u5ddd","lat":35.630672,"lng":139.103595,"description":"\u7532\u5dde\u9053\u4e2d\u3067\u552f\u4e00\u306e\u5ddd\u8d8a\u6cb3\u5ddd\u3060\u3063\u305f\u3002\r\n\u590f\u671f\u306f\u5f92\u6b69\u6e21\u308a\u3067\u3001\u6c34\u306e\u5c11\u306a\u3044\u51ac\u5b63\u306f\u4eee\u6a4b\u304c\u67b6\u3051\u3089\u308c\u305f\u3002\r\n\u5ddd\u8d8a\u3057\u4eba\u8db3\u306f\u8a55\u5224\u304c\u60aa\u304f\u3001\u756a\u6240\u5f79\u4eba\u3088\u308a\u3082\u6016\u304b\u3063\u305f\u3068\u3044\u3046\u3002\r\n\u5e02\u5ddd\u56e3\u5341\u90ce\u4e00\u5ea7\u304c\u5ddd\u306b\u843d\u3068\u3055\u308c\u305f\u3068\u3044\u3046\u9038\u8a71\u3082\u3042\u308b\u3002","category":"\u540d\u6240","image":null},{"id":1519,"title":"\u6c5f\u6238\u65b9\uff08\u9db4\u5ddd\u5bbf\uff09","lat":35.633486,"lng":139.103311,"description":"\u4e0a\u91ce\u539f\u5bbf\u307e\u3067\u7d042km","category":"\u898b\u4ed8","image":null},{"id":1520,"title":"\u9db4\u5ddd\u5bbf\uff08\u5bcc\u7530\u672c\u9663\uff09","lat":35.635649,"lng":139.102144,"description":"\u6b63\u5fb3\u4e09\u5e74\uff08\uff11\uff17\uff11\uff13\uff09\u4e00\u6751\u4e00\u5bbf\u306b\u3066\u5bbf\u5834\u3092\u69cb\u6210\u3057\u305f\u3002\u5c0f\u5bbf\u3060\u304c\u3001\u9db4\u5ddd\u306e\u5ddd\u7559\u3081\u306b\u5099\u3048\u3066\u5bbf\u6cca\u8a2d\u5099\u306f\u6574\u3063\u3066\u3044\u305f\u3002\r\n\u5927\u6b63\u5341\u5e74\uff081921\u5e74\uff09\u306e\u5927\u706b\u3067\u713c\u5931\u3057\u3066\u3057\u307e\u3063\u305f\u304c\u3001\u753a\u4e26\u307f\u306f\u53e4\u304d\u9762\u5f71\u3092\u5c4b\u53f7\u3068\u3068\u3082\u306b\u6b8b\u3057\u3066\u3044\u308b\u3002\r\n\r\n\u25ce\u672c\u9663\uff11\u3001\u8107\u672c\u9663\uff12\u3001\u65c5\u7c60\uff18\u8ed2\r\n\r\n\u3010\u540d\u7269\u3011\r\n\u7279\u306b\u306a\u3057","category":"\u5bbf\u5834","image":null},{"id":1521,"title":"\u8acf\u8a2a\u65b9\uff08\u9db4\u5ddd\u5bbf\uff09","lat":35.635716,"lng":139.101831,"description":"\u91ce\u7530\u5c3b\u5bbf\u307e\u3067\u7d044km","category":"\u898b\u4ed8","image":null},{"id":1522,"title":"\u5927\u691a\u4e00\u91cc\u585a","lat":35.632285,"lng":139.091291,"description":"\u65e5\u672c\u6a4b\u304b\u308919\u756a\u76ee\u306e\u4e00\u91cc\u585a\r\n\r\n\u25cb\u76ee\u5370\u3042\u308a\r\n\r\n\u4e0a\u91ce\u539f\u5e02\u53f2\u8de1","category":"\u4e00\u91cc\u585a","image":null},{"id":1523,"title":"\u6c5f\u6238\u65b9\uff08\u91ce\u7530\u5c3b\u5bbf\uff09","lat":35.634477,"lng":139.065595,"description":"\u9db4\u5ddd\u5bbf\u307e\u3067\u7d044km","category":"\u898b\u4ed8","image":null},{"id":1524,"title":"\u91ce\u7530\u5c3b\u5bbf\uff08\u5bae\u7530\u672c\u9663\uff09","lat":35.634542,"lng":139.063291,"description":"\u6b63\u5fb3\u4e09\u5e74\uff081713\u5e74\uff09\u96c6\u843d\u8d77\u7acb\u306e\u5f62\u614b\u3067\u5bbf\u3092\u69cb\u6210\u3057\u305f\u3002\u304a\u7389\u30f6\u6c60\u306b\u307e\u3064\u308f\u308b\u7adc\u306e\u4f1d\u8aac\u306a\u3069\u3082\u6b8b\u308b\u5c0f\u3055\u306a\u5bbf\u5834\u3067\u3042\u3063\u305f\u304c\u3001\u660e\u6cbb\u5341\u4e5d\u5e74\uff081886\uff09\u306e\u5927\u706b\u3067\u672c\u9663\u3092\u542b\u3080\u6b86\u3069\u306e\u5efa\u7269\u304c\u713c\u5931\u3057\u305f\u3002\r\n\u5f80\u6642\u306e\u9762\u5f71\u306f\u5931\u308f\u308c\u305f\u304c\u3001\u73fe\u5728\u3082\u6614\u306e\u5c4b\u53f7\u3092\u6b8b\u3057\u3001\u5bbf\u5834\u753a\u306e\u96f0\u56f2\u6c17\u3092\u6b8b\u3057\u3066\u3044\u308b\u3002\r\n\r\n\u25ce\u672c\u9663\uff11\u8ed2\u3001\u8107\u672c\u9663\uff11\u8ed2\u3001\u65c5\u7c60\uff19\u8ed2\r\n\r\n\u3010\u540d\u7269\u3011\r\n\u7279\u306b\u306a\u3057","category":"\u5bbf\u5834","image":null},{"id":1525,"title":"\u8acf\u8a2a\u65b9\uff08\u91ce\u7530\u5c3b\u5bbf\uff09","lat":35.634421,"lng":139.062352,"description":"\u72ac\u76ee\u5bbf\u307e\u3067\u7d043km","category":"\u898b\u4ed8","image":null},{"id":1526,"title":"\u837b\u91ce\u4e00\u91cc\u585a","lat":35.632129,"lng":139.056937,"description":"\u65e5\u672c\u6a4b\u304b\u308920\u756a\u76ee\u306e\u4e00\u91cc\u585a\r\n\r\n\u25cb\u76ee\u5370\u3042\u308a\r\n\r\n\u4e0a\u91ce\u539f\u5e02\u53f2\u8de1","category":"\u4e00\u91cc\u585a","image":null},{"id":1527,"title":"\u6c5f\u6238\u65b9\uff08\u72ac\u76ee\u5bbf\uff09","lat":35.626716,"lng":139.034938,"description":"\u91ce\u7530\u5c3b\u5bbf\u307e\u3067\u7d043km","category":"\u898b\u4ed8","image":null},{"id":1528,"title":"\u72ac\u76ee\u5bbf\uff08\u5ca1\u90e8\u672c\u9663\uff09","lat":35.625644,"lng":139.032695,"description":"\u6b63\u5fb3\u4e09\u5e74\uff081713\u5e74\uff09\u306b\u5bbf\u304c\u69cb\u6210\u3055\u308c\u305f\u3002\u300c\u3053\u306e\u5730\u6975\u3081\u3066\u9ad8\u304d\u6240\u306b\u3066\u3001\u623f\u7dcf\u306e\u6d77\u3001\u5bcc\u58eb\u306e\u773a\u671b\u5947\u7d76\u305f\u308b\u6240\u300d\u3068\u3044\u308f\u308c\u305f\u307b\u3069\u5bcc\u58eb\u5c71\u304c\u7dba\u9e97\u306b\u898b\u3048\u308b\u3053\u3068\u3067\u77e5\u3089\u308c\u3066\u3044\u305f\u3002\u845b\u98fe\u5317\u658e\u306e\u300c\u51a8\u5dbd\u4e09\u5341\u516d\u666f\u30fb\u7532\u5dde\u72ac\u76ee\u5ce0\u300d\u3067\u3082\u6709\u540d\u306b\u306a\u3063\u305f\u5834\u6240\u3067\u3042\u308b\u3002\u5bbf\u5834\u306f\u662d\u548c\u56db\u5341\u4e94\u5e74\uff081970\u5e74\uff09\u306e\u5927\u706b\u3067\u713c\u5931\u3057\u3066\u3057\u307e\u3063\u305f\u3002\r\n\r\n\u25ce\u672c\u9663\uff11\u8ed2\u3001\u8107\u672c\u96631\u8ed2\u3001\u65c5\u7c6015\u8ed2\r\n\r\n\u3010\u540d\u7269\u3011\r\n\u7279\u306b\u306a\u3057","category":"\u5bbf\u5834","image":null},{"id":1529,"title":"\u8acf\u8a2a\u65b9\uff08\u72ac\u76ee\u5bbf\uff09","lat":35.625531,"lng":139.032125,"description":"\u4e0b\u9ce5\u6ca2\u5bbf\u307e\u3067\u7d044km","category":"\u898b\u4ed8","image":null},{"id":1530,"title":"\u604b\u585a\u4e00\u91cc\u585a","lat":35.62551,"lng":139.025394,"description":"\u65e5\u672c\u6a4b\u304b\u308921\u756a\u76ee\u306e\u4e00\u91cc\u585a\r\n\r\n\u25cb\u76ee\u5370\u3042\u308a\r\n\r\n\u5c71\u68a8\u770c\u53f2\u8de1","category":"\u4e00\u91cc\u585a","image":null},{"id":1531,"title":"\u6c5f\u6238\u65b9\uff08\u4e0b\u9ce5\u6ca2\u5bbf\uff09","lat":35.608374,"lng":139.011586,"description":"\u72ac\u76ee\u5bbf\u307e\u3067\u7d044km","category":"\u898b\u4ed8","image":null},{"id":1532,"title":"\u4e0b\u9ce5\u6ca2\u5bbf","lat":35.608925,"lng":139.00827,"description":"\u4e0b\u9ce5\u6ca2\u5bbf\u3068\u4e0a\u9ce5\u6ca2\u5bbf\u306f\u96a3\u63a5\u3057\u305f\u5408\u5bbf\u3067\u3001\u7d99\u7acb\u3001\u554f\u5c4b\u696d\u306a\u3069\u306f\u534a\u6708\u305a\u3064\u4ea4\u66ff\u3067\u884c\u308f\u308c\u3066\u3044\u305f\u3002\r\n\u4e0b\u9ce5\u6ca2\u5bbf\u306f\u4e0b\u5341\u4e94\u65e5\u3092\u52e4\u3081\u305f\u3002\r\n\u304b\u3064\u3066\u306e\u65c5\u7c60\u3001\u304a\u8336\u5c4b\u306a\u3069\u5bbf\u5834\u6642\u4ee3\u3092\u5072\u3070\u305b\u308b\u5efa\u7269\u304c\u4e26\u3093\u3067\u3044\u308b\u3002\r\n\r\n\u25ce\u672c\u9663\uff11\u8ed2\u3001\u8107\u672c\u9663\uff12\u8ed2\u3001\u65c5\u7c60\uff11\uff11\u8ed2\r\n\r\n\u3010\u540d\u7269\u3011\r\n\u7279\u306b\u306a\u3057","category":"\u5bbf\u5834","image":null},{"id":1533,"title":"\u9ce5\u6ca2\u4e00\u91cc\u585a","lat":35.608712,"lng":139.004171,"description":"\u65e5\u672c\u6a4b\u304b\u308922\u756a\u76ee\u306e\u4e00\u91cc\u585a\r\n\r\n\u25cb\u76ee\u5370\u3042\u308a","category":"\u4e00\u91cc\u585a","image":null},{"id":1534,"title":"\u4e0a\u9ce5\u6ca2\u5bbf\uff08\u4e95\u4e0a\u672c\u9663\uff09","lat":35.608963,"lng":139.000935,"description":"\u4e0b\u9ce5\u6ca2\u5bbf\u3068\u4e0a\u9ce5\u6ca2\u5bbf\u306f\u96a3\u63a5\u3057\u305f\u5408\u5bbf\u3067\u3001\u7d99\u7acb\u3001\u554f\u5c4b\u696d\u306a\u3069\u306f\u534a\u6708\u305a\u3064\u4ea4\u66ff\u3067\u884c\u308f\u308c\u3066\u3044\u305f\u3002\r\n\u4e0a\u9ce5\u6ca2\u5bbf\u306f\u4e0a\u5341\u4e94\u65e5\u3092\u52e4\u3081\u305f\u3002\r\n\u304b\u3064\u3066\u306e\u65e7\u8857\u9053\u306e\u65c5\u7c60\u30fb\u304a\u8336\u5c4b\u30fb\u5546\u5bb6\u3060\u3063\u305f\u5efa\u7269\u304c\u3088\u304f\u6b8b\u3063\u3066\u3044\u308b\u3002\r\n\r\n\u25ce\u672c\u9663\uff11\u8ed2\u3001\u8107\u672c\u9663\uff12\u8ed2\u3001\u65c5\u7c60\uff11\uff13\u8ed2\r\n\r\n\u3010\u540d\u7269\u3011\r\n\u7279\u306b\u306a\u3057","category":"\u5bbf\u5834","image":null},{"id":1535,"title":"\u8acf\u8a2a\u65b9\uff08\u4e0a\u9ce5\u6ca2\u5bbf\uff09","lat":35.609241,"lng":138.998972,"description":"\u733f\u6a4b\u5bbf\u307e\u3067\u7d043km","category":"\u898b\u4ed8","image":null},{"id":1536,"title":"\u733f\u6a4b","lat":35.615744,"lng":138.980221,"description":"\u5ca9\u56fd\u306e\u9326\u5e2f\u6a4b\u3001\u6728\u66fd\u306e\u304b\u3051\u6a4b\u3068\u3068\u3082\u306b\u65e5\u672c\u4e09\u5947\u6a4b\u306e\u3072\u3068\u3064\u306b\u6570\u3048\u3089\u308c\u308b\u3002\r\n\u300e\u7532\u967d\u733f\u6a4b\u4e4b\u56f3\u300f\u306b\u63cf\u304b\u308c\u305f\u308a\u3001\u677e\u5c3e\u82ad\u8549\u306e\u300e\u733f\u6a4b\u3084\u3000\u6708\u677e\u306b\u3042\u308a\u3000\u6c34\u306b\u3042\u308a\u300f\u3068\u6b4c\u308f\u308c\u305f\u3002\u938c\u5009\u6642\u4ee3\u306b\u306f\u5b58\u5728\u3057\u3066\u3044\u305f\u3089\u3057\u3044\u304c\u306f\u3063\u304d\u308a\u306f\u3057\u3066\u3044\u306a\u3044\u3002\u9577\u4eab\u5143\u5e74\uff081487\u5e74\uff09\u306b\u306f\u3059\u3067\u306b\u6a4b\u304c\u5b58\u5728\u3057\u3066\u3044\u305f\u3002\u5ef6\u5b9d\u56db\u5e74\uff081676\u5e74\uff09\u306b\u306f\u73fe\u5728\u306e\u3088\u3046\u306a\u3044\u8098\u6728\u69cb\u9020\u306e\u6a4b\u304c\u3042\u3063\u305f\u3053\u3068\u304c\u308f\u304b\u3063\u3066\u3044\u308b\u3002\r\n\u73fe\u5728\u306e\u6a4b\u306f\u662d\u548c\u4e94\u5341\u4e5d\u5e74\uff081984\u5e74\uff09\u306b\u67b6\u3051\u66ff\u3048\u3089\u308c\u305f\u3082\u306e\u3002","category":"\u540d\u6240","image":null},{"id":1537,"title":"\u6c5f\u6238\u65b9\uff08\u733f\u6a4b\u5bbf\uff09","lat":35.615328,"lng":138.980352,"description":"\u4e0a\u9ce5\u6ca2\u5bbf\u307e\u3067\u7d043km","category":"\u898b\u4ed8","image":null},{"id":1538,"title":"\u733f\u6a4b\u5bbf\uff08\u5175\u53f3\u885b\u9580\u672c\u9663\uff09","lat":35.614341,"lng":138.980039,"description":"\u65e5\u672c\u4e09\u5947\u6a4b\u306e\u4e00\u3064\u3067\u3042\u308b\u733f\u6a4b\u304c\u8fd1\u304f\u306b\u3042\u308b\u5bbf\u5834\u3067\u3042\u308a\u3001\u304b\u3064\u3066\u306f\u6b4c\u5ddd\u5e83\u91cd\u3082\u3053\u306e\u733f\u6a4b\u8fd1\u304f\u306e\u8336\u5c4b\u3067\u98df\u4e8b\u3092\u3057\u3066\u4e00\u4f11\u307f\u3057\u305f\u3002\r\n\u666f\u52dd\u300c\u733f\u6a4b\u300d\u3092\u898b\u5b66\u3057\u3088\u3046\u3068\u3044\u3046\u4eba\u9054\u3067\u8cd1\u308f\u3063\u305f\u5bbf\u5834\u3067\u3082\u3042\u3063\u305f\u3002\r\n\u660e\u6cbb\u4ee5\u5f8c\u306e\u5927\u706b\u3067\u3001\u5f53\u6642\u306e\u753a\u4e26\u307f\u306f\u6b8b\u3063\u3066\u3044\u306a\u3044\u3002\r\n\r\n\u25ce\u672c\u9663\uff11\u8ed2\u3001\u8107\u672c\u9663\uff12\u8ed2\u3001\u65c5\u7c60\uff110\u8ed2\r\n\r\n\u3010\u540d\u7269\u3011\r\n\u7279\u306b\u306a\u3057","category":"\u5bbf\u5834","image":null},{"id":1539,"title":"\u8acf\u8a2a\u65b9\uff08\u733f\u6a4b\u5bbf\uff09","lat":35.613793,"lng":138.976448,"description":"\u99d2\u6a4b\u5bbf\u307e\u3067\u7d042km","category":"\u898b\u4ed8","image":null},{"id":1540,"title":"\u6bbf\u4e0a\u4e00\u91cc\u585a","lat":35.61376,"lng":138.96627,"description":"\u65e5\u672c\u6a4b\u304b\u308923\u756a\u76ee\u306e\u4e00\u91cc\u585a\r\n\r\n\u25cb\u76ee\u5370\u3042\u308a","category":"\u4e00\u91cc\u585a","image":null},{"id":1541,"title":"\u6c5f\u6238\u65b9\uff08\u99d2\u6a4b\u5bbf\uff09","lat":35.612826,"lng":138.956751,"description":"\u733f\u6a4b\u5bbf\u307e\u3067\u7d042km","category":"\u898b\u4ed8","image":null},{"id":1542,"title":"\u99d2\u6a4b\u5bbf\uff08\u672c\u9663\u306a\u3057\uff09","lat":35.612802,"lng":138.955555,"description":"\u7532\u5dde\u8857\u9053\u6cbf\u3044\u306e\u5bbf\u5834\u753a\u306e\u7279\u8272\u306b\u3001\u77ed\u3044\u8ddd\u96e2\u306b\u8907\u6570\u306e\u5bbf\u5834\u753a\u304c\u3042\u308b\u3053\u3068\u304c\u6319\u3052\u3089\u308c\u308b\u3002\u4e2d\u306b\u306f\u7247\u7d99\u304e\uff08\u5f80\u8def\u3068\u5fa9\u8def\u3067\u4f7f\u7528\u3067\u304d\u308b\u5bbf\u5834\u304c\u9055\u3046\u3053\u3068\uff09\u306e\u5bbf\u5834\u3084\u5b9a\u671f\u4ea4\u66ff\u3067\u55b6\u696d\u3059\u308b\u5bbf\u5834\u304c\u5b58\u5728\u3057\u3066\u3044\u305f\u3002\u99d2\u6a4b\u3001\u5927\u6708\u3001\u4e0b\u82b1\u54b2\u3001\u4e0a\u82b1\u54b2\u306e\uff14\u3064\u3082\u3053\u306e\u3088\u3046\u306a\u5bbf\u5834\u3067\u3001\u99d2\u6a4b\u5bbf\u306f\u3001\u9593\u306e\u5bbf\u7684\u306a\u5c0f\u3055\u306a\u5bbf\u5834\u3060\u3063\u305f\u3002\r\n\r\n\u25ce\u672c\u96630\u8ed2\u3001\u8107\u672c\u96630\u8ed2\u3001\u65c5\u7c604\u8ed2\r\n\r\n\u3010\u540d\u7269\u3011\r\n\u7279\u306b\u306a\u3057","category":"\u5bbf\u5834","image":null},{"id":1543,"title":"\u8acf\u8a2a\u65b9\uff08\u99d2\u6a4b\u5bbf\uff09","lat":35.612688,"lng":138.954655,"description":"\u5927\u6708\u5bbf\u307e\u3067\u7d041.5km","category":"\u898b\u4ed8","image":null},{"id":1544,"title":"\u6c5f\u6238\u65b9\uff08\u5927\u6708\u5bbf\uff09","lat":35.610953,"lng":138.940449,"description":"\u99d2\u6a4b\u5bbf\u307e\u3067\u7d041.5km","category":"\u898b\u4ed8","image":null},{"id":1545,"title":"\u5927\u6708\u5bbf\uff08\u661f\u91ce\u672c\u9663\uff09","lat":35.610163,"lng":138.938072,"description":"\u5143\u3005\u306f\u99d2\u6a4b\u3068\u4e00\u6751\u3067\u3042\u3063\u305f\u304c\u3001\u5bdb\u6587\u5e74\u4e2d\uff081661\u5e74\uff5e73\u5e74\uff09\u306b\u5206\u6751\u3057\u3066\u4e00\u5bbf\u3092\u5f62\u6210\u3057\u305f\u3002\r\n\u76f8\u6a21\u306e\u56fd\u306b\u901a\u3058\u308b\u5bcc\u58eb\u5c71\u9053\u306e\u8ffd\u5206\u3067\u3001\u6c5f\u6238\u6642\u4ee3\u306b\u306f\u5bcc\u58eb\u5c71\u3092\u4fe1\u4ef0\u3059\u308b\u5bcc\u58eb\u8b1b\u306e\u4eba\u305f\u3061\u304c\u884c\u304d\u4ea4\u3063\u3066\u8cd1\u3063\u305f\u5bbf\u5834\u3002\r\n\r\n\u25ce\u672c\u96631\u8ed2\u3001\u8107\u672c\u96632\u8ed2\u3001\u65c5\u7c602\u8ed2\r\n\r\n\u3010\u540d\u7269\u3011\r\n\u7279\u306b\u306a\u3057","category":"\u5bbf\u5834","image":null},{"id":1546,"title":"\u8acf\u8a2a\u65b9\uff08\u5927\u6708\u5bbf\uff09","lat":35.609693,"lng":138.937556,"description":"\u4e0b\u82b1\u54b2\u5bbf\u307e\u3067\u7d041km","category":"\u898b\u4ed8","image":null},{"id":1547,"title":"\u5bcc\u58eb\u5c71\u9053\u306e\u8ffd\u5206","lat":35.609433,"lng":138.937513,"description":"","category":"\u540d\u6240","image":null},{"id":1548,"title":"\u4e0b\u82b1\u54b2\u4e00\u91cc\u585a","lat":35.606093,"lng":138.932729,"description":"\u65e5\u672c\u6a4b\u304b\u308924\u756a\u76ee\u306e\u4e00\u91cc\u585a\r\n\r\n\u25cb\u76ee\u5370\u3042\u308a\r\n\r\n\u5927\u6708\u5e02\u53f2\u8de1","category":"\u4e00\u91cc\u585a","image":null},{"id":1549,"title":"\u6c5f\u6238\u65b9\uff08\u4e0b\u82b1\u54b2\u5bbf\uff09","lat":35.605835,"lng":138.930462,"description":"\u5927\u6708\u5bbf\u307e\u3067\u7d041km","category":"\u898b\u4ed8","image":null},{"id":1550,"title":"\u4e0b\u82b1\u54b2\u5bbf\uff08\u661f\u91ce\u672c\u9663\uff09","lat":35.6055,"lng":138.92817,"description":"\u82b1\u54b2\u5bbf\u306f\u3001\u4e0b\u82b1\u54b2\u3068\u4e0a\u82b1\u54b2\u3067\u4e00\u5bbf\u3092\u6210\u3057\u3066\u3044\u305f\u3002\u305d\u308c\u305e\u308c\u306b\u672c\u9663\u3001\u8107\u672c\u9663\u3092\u6301\u3063\u3066\u3044\u305f\u306e\u3067\u4e00\u822c\u7684\u306b\u306f\u5225\u3005\u306e\u5bbf\u5834\u3068\u3057\u3066\u6570\u3048\u3089\u308c\u3066\u3044\u305f\u3002\r\n\u554f\u5c4b\u7d99\u7acb\u696d\u52d9\u306f\u3001\u4e0b\u82b1\u54b2\u5bbf\u304c\u4e0b15\u65e5\u3092\u52e4\u3081\u305f\u3002\r\n\u672c\u9663\u306f\u73fe\u5b58\u3059\u308b3\u5bbf\u306e\u672c\u9663\u306e\u4e00\u3064\u3002\r\n\r\n\u25ce\u672c\u96631\u8ed2\u3001\u8107\u672c\u96632\u8ed2\u3001\u65c5\u7c6022\u8ed2\r\n\r\n\u3010\u540d\u7269\u3011\r\n\u7279\u306b\u306a\u3057","category":"\u5bbf\u5834","image":null},{"id":1551,"title":"\u8acf\u8a2a\u65b9\uff08\u4e0b\u82b1\u54b2\u5bbf\uff09","lat":35.605001,"lng":138.927519,"description":"\u4e0a\u82b1\u54b2\u5bbf\u307e\u3067\u7d040.5km","category":"\u898b\u4ed8","image":null},{"id":1552,"title":"\u6c5f\u6238\u65b9\uff08\u4e0a\u82b1\u54b2\u5bbf\uff09","lat":35.603086,"lng":138.923658,"description":"\u4e0b\u82b1\u54b2\u5bbf\u307e\u3067\u7d040.5km","category":"\u898b\u4ed8","image":null},{"id":1553,"title":"\u4e0a\u82b1\u54b2\u5bbf\uff08\u4e95\u4e0a\u672c\u9663\uff09","lat":35.602501,"lng":138.922611,"description":"\u82b1\u54b2\u5bbf\u306f\u3001\u4e0b\u82b1\u54b2\u3068\u4e0a\u82b1\u54b2\u3067\u4e00\u5bbf\u3092\u6210\u3057\u3066\u3044\u305f\u3002\u305d\u308c\u305e\u308c\u306b\u672c\u9663\u3001\u8107\u672c\u9663\u3092\u6301\u3063\u3066\u3044\u305f\u306e\u3067\u4e00\u822c\u7684\u306b\u306f\u5225\u3005\u306e\u5bbf\u5834\u3068\u3057\u3066\u6570\u3048\u3089\u308c\u3066\u3044\u305f\u3002\r\n\u554f\u5c4b\u7d99\u7acb\u696d\u52d9\u306f\u3001\u4e0a\u82b1\u54b2\u5bbf\u304c\u4e0a15\u65e5\u3092\u52e4\u3081\u305f\u3002\r\n\r\n\u25ce\u672c\u96631\u8ed2\u3001\u8107\u672c\u96632\u8ed2\u3001\u65c5\u7c6013\u8ed2\r\n\r\n\u3010\u540d\u7269\u3011\r\n\u7279\u306b\u306a\u3057","category":"\u5bbf\u5834","image":null},{"id":1554,"title":"\u8acf\u8a2a\u65b9\uff08\u4e0a\u82b1\u54b2\u5bbf\uff09","lat":35.601727,"lng":138.920001,"description":"\u4e0b\u521d\u72e9\u5bbf\u307e\u3067\u7d043km","category":"\u898b\u4ed8","image":null},{"id":1555,"title":"\u4e38\u5c71\u4e00\u91cc\u585a","lat":35.596787,"lng":138.891378,"description":"\u65e5\u672c\u6a4b\u304b\u308925\u756a\u76ee\u306e\u4e00\u91cc\u585a\r\n\r\n\u25cb\u75d5\u8de1\u306a\u3057\uff08\u3053\u306e\u3042\u305f\u308a\u3060\u3068\u63a8\u6e2c\uff09","category":"\u4e00\u91cc\u585a","image":null},{"id":1556,"title":"\u6c5f\u6238\u65b9\uff08\u4e0b\u521d\u72e9\u5bbf\uff09","lat":35.596481,"lng":138.889266,"description":"\u4e0a\u82b1\u54b2\u5bbf\u307e\u3067\u7d043km","category":"\u898b\u4ed8","image":null},{"id":1557,"title":"\u4e0b\u521d\u72e9\u5bbf\uff08\u5965\u8107\u672c\u9663\uff09","lat":35.596483,"lng":138.886076,"description":"\u521d\u72e9\u5bbf\u306f\u4e0b\u521d\u72e9\u3068\u4e2d\u521d\u72e9\u3067\u4e00\u5bbf\u3092\u6210\u3057\u3066\u3044\u305f\u3002\u305d\u308c\u305e\u308c\u306b\u672c\u9663\u3001\u8107\u672c\u9663\u3092\u6301\u3063\u3066\u3044\u305f\u306e\u3067\u4e00\u822c\u7684\u306b\u306f\u5225\u3005\u306e\u5bbf\u5834\u3068\u3057\u3066\u6570\u3048\u3089\u308c\u3066\u3044\u305f\u3002\r\n\u554f\u5c4b\u7d99\u7acb\u696d\u52d9\u306f\u3001\u4e0b\u521d\u72e9\u5bbf\u304c\u4e0b15\u65e5\u3092\u52e4\u3081\u305f\u3002\r\n\r\n\u25ce\u672c\u96632\u8ed2\u3001\u8107\u672c\u96632\u8ed2\u3001\u65c5\u7c6012\u8ed2\r\n\r\n\u3010\u540d\u7269\u3011\r\n\u7279\u306b\u306a\u3057","category":"\u5bbf\u5834","image":null},{"id":1558,"title":"\u8acf\u8a2a\u65b9\uff08\u4e0b\u521d\u72e9\u5bbf\uff09","lat":35.596582,"lng":138.883065,"description":"\u4e2d\u521d\u72e9\u5bbf\u307e\u3067\u7d040.5km","category":"\u898b\u4ed8","image":null},{"id":1559,"title":"\u6c5f\u6238\u65b9\uff08\u4e2d\u521d\u72e9\u5bbf\uff09","lat":35.595935,"lng":138.878106,"description":"\u4e0b\u521d\u72e9\u5bbf\u307e\u3067\u7d040.5km","category":"\u898b\u4ed8","image":null},{"id":1560,"title":"\u4e2d\u521d\u72e9\u5bbf\uff08\u5c0f\u6797\u672c\u9663\uff09","lat":35.596349,"lng":138.875038,"description":"\u521d\u72e9\u5bbf\u306f\u4e0b\u521d\u72e9\u3068\u4e2d\u521d\u72e9\u3067\u4e00\u5bbf\u3092\u6210\u3057\u3066\u3044\u305f\u3002\u305d\u308c\u305e\u308c\u306b\u672c\u9663\u3001\u8107\u672c\u9663\u3092\u6301\u3063\u3066\u3044\u305f\u306e\u3067\u4e00\u822c\u7684\u306b\u306f\u5225\u3005\u306e\u5bbf\u5834\u3068\u3057\u3066\u6570\u3048\u3089\u308c\u3066\u3044\u305f\u3002\r\n\u554f\u5c4b\u7d99\u7acb\u696d\u52d9\u306f\u3001\u4e2d\u521d\u72e9\u5bbf\u304c\u4e0a15\u65e5\u3092\u52e4\u3081\u305f\u3002\r\n\r\n\u25ce\u672c\u96631\u8ed2\u3001\u8107\u672c\u96631\u8ed2\u3001\u65c5\u7c6025\u8ed2\r\n\r\n\u3010\u540d\u7269\u3011\r\n\u7279\u306b\u306a\u3057","category":"\u5bbf\u5834","image":null},{"id":1561,"title":"\u8acf\u8a2a\u65b9\uff08\u4e2d\u521d\u72e9\u5bbf\uff09","lat":35.598569,"lng":138.87142,"description":"\u767d\u91ce\u5bbf\u307e\u3067\u7d042km","category":"\u898b\u4ed8","image":null},{"id":1562,"title":"\u767d\u91ce\u4e00\u91cc\u585a","lat":35.604083,"lng":138.857953,"description":"\u65e5\u672c\u6a4b\u304b\u308926\u756a\u76ee\u306e\u4e00\u91cc\u585a\r\n\r\n\u25cb\u76ee\u5370\u3042\u308a","category":"\u4e00\u91cc\u585a","image":null},{"id":1563,"title":"\u6c5f\u6238\u65b9\uff08\u767d\u91ce\u5bbf\uff09","lat":35.603982,"lng":138.856477,"description":"\u4e2d\u521d\u72e9\u5bbf\u307e\u3067\u7d042km","category":"\u898b\u4ed8","image":null},{"id":1564,"title":"\u767d\u91ce\u5bbf\uff08\u4eca\u6cc9\u672c\u9663\uff09","lat":35.602689,"lng":138.852885,"description":"\u767d\u91ce\u5bbf\u30fb\u963f\u5f25\u9640\u6d77\u9053\u5bbf\u30fb\u9ed2\u91ce\u7530\u5bbf\u306f\u3001\u5143\u306f\uff13\u3064\u3067\uff11\u90f7\u3067\u3042\u308a\u3001\uff13\u5bbf\u3067\u7d99\u304e\u7acb\u3066\u3092\u5206\u62c5\u3057\u305f\u3002\r\n\u7d99\u7acb\u3066\u696d\u52d9\u306f\u6708\u306e23\u65e5\u304b\u3089\u6666\u65e5\u8fc4\u3092\u52e4\u3081\u305f\u3002\r\n\r\n\u25ce\u672c\u96631\u8ed2\u3001\u8107\u672c\u96631\u8ed2\u3001\u65c5\u7c604\u8ed2\r\n\r\n\u3010\u540d\u7269\u3011\r\n\u7279\u306b\u306a\u3057","category":"\u5bbf\u5834","image":null},{"id":1565,"title":"\u8acf\u8a2a\u65b9\uff08\u767d\u91ce\u5bbf\uff09","lat":35.602181,"lng":138.852311,"description":"\u963f\u5f25\u9640\u6d77\u9053\u5bbf\u307e\u3067\u7d042km","category":"\u898b\u4ed8","image":null},{"id":1566,"title":"\u6c5f\u6238\u65b9\uff08\u963f\u5f25\u9640\u6d77\u9053\u5bbf\uff09","lat":35.604291,"lng":138.831228,"description":"\u767d\u91ce\u5bbf\u307e\u3067\u7d042km","category":"\u898b\u4ed8","image":null},{"id":1567,"title":"\u963f\u5f25\u9640\u6d77\u9053\u5bbf\uff08\u672c\u9663\u4e0d\u660e\uff09","lat":35.604081,"lng":138.829839,"description":"\u767d\u91ce\u5bbf\u30fb\u963f\u5f25\u9640\u6d77\u9053\u5bbf\u30fb\u9ed2\u91ce\u7530\u5bbf\u306f\u3001\u5143\u306f\uff13\u3064\u3067\uff11\u90f7\u3067\u3042\u308a\u3001\uff13\u5bbf\u3067\u7d99\u304e\u7acb\u3066\u3092\u5206\u62c5\u3057\u305f\u3002\u7d99\u7acb\u3066\u696d\u52d9\u306f\u6708\u306e16\u65e5\u304b\u308922\u65e5\u8fc4\u3092\u52e4\u3081\u305f\u3002\u660e\u6cbb\u56db\u5341\u5e74\uff081907\u5e74\uff09\u306e\u5927\u6c34\u5bb3\u3067\u5bbf\u5834\u306f\u3059\u3079\u3066\u571f\u77f3\u6d41\u306b\u6d41\u3055\u308c\u305f\u3002\u591a\u304f\u306e\u88ab\u707d\u8005\u306f\u79fb\u4f4f\u3057\u305f\u305f\u3081\u3001\u5bbf\u5834\u306e\u75d5\u8de1\u306f\u307e\u3063\u305f\u304f\u6b8b\u3063\u3066\u3044\u306a\u3044\u3002\r\n\r\n\u25ce\u672c\u96631\u8ed2\u3001\u8107\u672c\u96631\u8ed2\u3001\u65c5\u7c604\u8ed2\r\n\r\n\u3010\u540d\u7269\u3011\r\n\u7279\u306b\u306a\u3057","category":"\u5bbf\u5834","image":null},{"id":1568,"title":"\u8acf\u8a2a\u65b9\uff08\u963f\u5f25\u9640\u6d77\u9053\u5bbf\uff09","lat":35.604106,"lng":138.829264,"description":"\u9ed2\u91ce\u7530\u5bbf\u307e\u3067\u7d040.5km","category":"\u898b\u4ed8","image":null},{"id":1569,"title":"\u6c5f\u6238\u65b9\uff08\u9ed2\u91ce\u7530\u5bbf\uff09","lat":35.604276,"lng":138.823238,"description":"\u963f\u5f25\u9640\u6d77\u9053\u5bbf\u307e\u3067\u7d040.5km","category":"\u898b\u4ed8","image":null},{"id":1570,"title":"\u9ed2\u91ce\u7530\u5bbf\uff08\u5929\u91ce\u672c\u9663\uff09","lat":35.604208,"lng":138.822526,"description":"\u767d\u91ce\u5bbf\u30fb\u963f\u5f25\u9640\u6d77\u9053\u5bbf\u30fb\u9ed2\u91ce\u7530\u5bbf\u306f\u3001\u5143\u306f\uff13\u3064\u3067\uff11\u90f7\u3067\u3042\u308a\u3001\uff13\u5bbf\u3067\u7d99\u304e\u7acb\u3066\u3092\u5206\u62c5\u3057\u305f\u3002\u7d99\u7acb\u3066\u696d\u52d9\u306f\u6708\u306e1\u65e5\u304b\u308915\u65e5\u8fc4\u3092\u52e4\u3081\u305f\u3002\u660e\u6cbb\u56db\u5341\u5e74\uff081907\u5e74\uff09\u306e\u5927\u6c34\u5bb3\u3092\u53d7\u3051\u3066\u9762\u5f71\u306f\u6b8b\u3063\u3066\u3044\u306a\u3044\u3002\r\n\r\n\u25ce\u672c\u96631\u8ed2\u3001\u8107\u672c\u96631\u8ed2\u3001\u65c5\u7c6014\u8ed2\r\n\r\n\u3010\u540d\u7269\u3011\r\n\u7279\u306b\u306a\u3057","category":"\u5bbf\u5834","image":null},{"id":1571,"title":"\u8acf\u8a2a\u65b9\uff08\u9ed2\u91ce\u7530\u5bbf\uff09","lat":35.604895,"lng":138.818984,"description":"\u99d2\u98fc\u5bbf\u307e\u3067\u7d0410km","category":"\u898b\u4ed8","image":null},{"id":1572,"title":"\u9ed2\u91ce\u7530\u4e00\u91cc\u585a","lat":35.605556,"lng":138.818596,"description":"\u65e5\u672c\u6a4b\u304b\u308927\u756a\u76ee\u306e\u4e00\u91cc\u585a\r\n\r\n\u25cb\u76ee\u5370\u3042\u308a","category":"\u4e00\u91cc\u585a","image":null},{"id":1573,"title":"\u77e2\u7acb\u4e00\u91cc\u585a","lat":35.610221,"lng":138.7887261,"description":"\u65e5\u672c\u6a4b\u304b\u308928\u756a\u76ee\u306e\u4e00\u91cc\u585a\r\n\r\n\u25cb\u75d5\u8de1\u306a\u3057\uff08\u3053\u306e\u3042\u305f\u308a\u3060\u3068\u63a8\u6e2c\uff09","category":"\u4e00\u91cc\u585a","image":null},{"id":1574,"title":"\u7b39\u5b50\u5ce0","lat":35.612954,"lng":138.780043,"description":"","category":"\u540d\u6240","image":null},{"id":1575,"title":"\u6c5f\u6238\u65b9\uff08\u99d2\u98fc\u5bbf\uff09","lat":35.634775,"lng":138.769037,"description":"\u9ed2\u91ce\u7530\u5bbf\u307e\u3067\u7d0410km","category":"\u898b\u4ed8","image":null},{"id":1576,"title":"\u99d2\u98fc\u5bbf\uff08\u6e21\u8fba\u672c\u9663\uff09","lat":35.635983,"lng":138.769324,"description":"\u9db4\u702c\u5bbf\u3068\u5408\u5bbf\u3002\u554f\u5c4b\u306e\u7d99\u7acb\u3066\u696d\u52d9\u306f\u6bce\u670821\u65e5\u304b\u3089\u6666\u65e5\u8fc4\u3092\u52e4\u3081\u305f\u3002\u7b39\u5b50\u5ce0\u306e\u897f\u9e93\u306b\u3042\u308a\u3001\u6c5f\u6238\u6642\u4ee3\u306b\u306f\u5e55\u5e9c\u306e\u516c\u7528\u3092\u7d99\u7acb\u3059\u308b\u5f79\u76ee\u3092\u679c\u305f\u3057\u305f\u3002\u65c5\u884c\u8005\u306e\u4f11\u6cca\u306e\u305f\u3081\u3001\u7532\u5dde\u8857\u9053\u306e\u8981\u6240\u3068\u3057\u3066\u77e5\u3089\u308c\u3066\u3044\u305f\u3002\r\n\u4eca\u3067\u3082\u5bb6\u304c\u5efa\u3061\u4e26\u3073\u3001\u5f80\u6642\u306e\u96f0\u56f2\u6c17\u3092\u6b8b\u3057\u3066\u3044\u308b\u3002\r\n\r\n\u25ce\u672c\u96631\u8ed2\u3001\u8107\u672c\u96631\u8ed2\u3001\u65c5\u7c606\u8ed2\r\n\r\n\u3010\u540d\u7269\u3011\r\n\u7279\u306b\u306a\u3057","category":"\u5bbf\u5834","image":null},{"id":1577,"title":"\u8acf\u8a2a\u65b9\uff08\u99d2\u98fc\u5bbf\uff09","lat":35.637321,"lng":138.770132,"description":"\u9db4\u702c\u5bbf\u307e\u3067\u7d041km","category":"\u898b\u4ed8","image":null},{"id":1578,"title":"\u65e5\u5f71\u4e00\u91cc\u585a","lat":35.632311,"lng":138.769277,"description":"\u65e5\u672c\u6a4b\u304b\u308929\u756a\u76ee\u306e\u4e00\u91cc\u585a\r\n\r\n\u25cb\u76ee\u5370\u3042\u308a\r\n\u5929\u72d7\u6a4b\u8fd1\u304f\u306e\u30d5\u30a7\u30f3\u30b9\u306e\u4e2d\u304b\u3089\u884c\u3051\u308b","category":"\u4e00\u91cc\u585a","image":null},{"id":1579,"title":"\u6c5f\u6238\u65b9\uff08\u9db4\u702c\u5bbf\uff09\u300c\u9db4\u702c\u95a2\u6240\u300d","lat":35.6431787,"lng":138.769298,"description":"\u7532\u5dde\u5341\u4e8c\u95a2\u306e\u3072\u3068\u3064\u3002\r\n\u53e3\u7559\u756a\u6240\u3068\u547c\u3070\u308c\u7269\u8cc7\u3068\u4eba\u306e\u5f80\u6765\u3092\u53d6\u308a\u7de0\u307e\u3063\u3066\u3044\u305f\u3002\r\n\r\n\u99d2\u98fc\u5bbf\u307e\u3067\u7d041km","category":"\u898b\u4ed8","image":null},{"id":1580,"title":"\u9db4\u702c\u5bbf\uff08\u5869\u91ce\u672c\u9663\uff09","lat":35.643437,"lng":138.768912,"description":"\u9db4\u702c\u5bbf\u3068\u5408\u5bbf\u3002\u554f\u5c4b\u306e\u7d99\u7acb\u3066\u696d\u52d9\u306f\u6bce\u67081\u65e5\u304b\u308920\u65e5\u8fc4\u3092\u52e4\u3081\u305f\u3002\r\n\u5165\u308a\u53e3\u306b\u306f\u95a2\u6240\u304c\u8a2d\u3051\u3089\u308c\u3066\u304a\u308a \u300c\u5165\u308a\u9244\u7832\u306b\u51fa\u5973\u3092\u53b3\u3057\u304f\u76e3\u8996\u3057\u3066\u3044\u305f\u300d\u3068\u3044\u3046\u3053\u3068\u3060\u304c\u3001\u88cf\u5c71\u3092\u901a\u3063\u3066\u95a2\u6240\u629c\u3051\u3059\u308b\u65c5\u4eba\u3082\u3044\u305f\u3088\u3046\u3067\u300c\u5f62\u5f0f\u3060\u3051\u306e\u95a2\u6240\u3060\u3063\u305f\u300d\u3068\u8a18\u3055\u308c\u305f\u8cc7\u6599\u3082\u3042\u308b\u3002\r\n\r\n\u25ce\u672c\u96631\u8ed2\u3001\u8107\u672c\u96632\u8ed2\u3001\u65c5\u7c604\u8ed2\r\n\r\n\u3010\u540d\u7269\u3011\r\n\u7279\u306b\u306a\u3057","category":"\u5bbf\u5834","image":null},{"id":1581,"title":"\u8acf\u8a2a\u65b9\uff08\u9db4\u702c\u5bbf\uff09","lat":35.643475,"lng":138.768349,"description":"\u52dd\u6cbc\u5bbf\u307e\u3067\u7d044km","category":"\u898b\u4ed8","image":null},{"id":1582,"title":"\u6a2a\u5439\u4e00\u91cc\u585a","lat":35.654142,"lng":138.750413,"description":"\u65e5\u672c\u6a4b\u304b\u308930\u756a\u76ee\u306e\u4e00\u91cc\u585a\r\n\r\n\u25cb\u76ee\u5370\u3042\u308a","category":"\u4e00\u91cc\u585a","image":null},{"id":1583,"title":"\u67cf\u5c3e\u6226\u5834","lat":35.654931,"lng":138.745476,"description":"\u660e\u6cbb\u5143\u5e74\uff081868\u5e74\uff09\u3001\u8fd1\u85e4\u52c7\u304c\u7387\u3044\u308b\u5e55\u5e9c\u8ecd\u3068\u677f\u57a3\u9000\u52a9\u304c\u7387\u3044\u308b\u5b98\u8ecd\u306e\u5148\u92d2\u968a\u304c\u6226\u3063\u305f\u5730\u3067\u3042\u308b\u3002\r\n\u67cf\u5c3e\u6a4b\u306e\u624b\u524d\u306b\u300c\u8fd1\u85e4\u52c7\u3000\u67cf\u5c3e\u53e4\u6226\u5834\u300d\u3068\u8a18\u3055\u308c\u305f\u6a19\u67f1\u304c\u5efa\u3066\u3089\u308c\u3066\u3044\u308b\u3002","category":"\u540d\u6240","image":null},{"id":1584,"title":"\u5927\u5584\u5bfa","lat":35.655927,"lng":138.743081,"description":"\u7532\u5dde\u8857\u9053\u306b\u3042\u308b\u6570\u5c11\u306a\u3044\u300c\u56fd\u5b9d\u7d1a\u300d\u306e\u53f2\u8de1\u3067\u3042\u308b\u3002\u305d\u306e\u56fd\u5b9d\u306e\u4e00\u3064\u304c\u5927\u5584\u5bfa\u85ac\u5e2b\u5802\u3002\u5f18\u5b89\u4e5d\u5e74\uff081286\u5e74\uff09\u306b\u5efa\u7acb\u3055\u308c\u305f\u3082\u306e\u3067\u3001\u713c\u5931\u3059\u308b\u3053\u3068\u306a\u304f\u938c\u5009\u6642\u4ee3\u306e\u7c21\u7d20\u3067\u8cea\u611f\u9ad8\u3044\u305d\u306e\u305f\u305f\u305a\u307e\u3044\u3092\u4eca\u306b\u4f1d\u3048\u3066\u3044\u308b\u3002\r\n\u5802\u5185\u306b\u306f\u56fd\u5b9d\u306e\u300c\u85ac\u5e2b\u4e09\u5c0a\u50cf\u300d\uff08\u5e73\u5b89\u521d\u671f\uff09\u306a\u3069\u304c\u3042\u308b\u3002\u5e73\u5b89\u521d\u671f\u304b\u3089\u938c\u5009\u30fb\u5ba4\u753a\u30fb\u6c5f\u6238\u3068\u9577\u3044\u6b74\u53f2\u8cc7\u7523\u3092\u5947\u8de1\u7684\u306b\u73fe\u5b58\u3055\u305b\u3066\u3044\u308b\u3002\r\n\u307e\u305f\u3001\u5927\u5584\u5bfa\u306f\u300c\u7532\u5dde\u30d6\u30c9\u30a6\u767a\u7965\u306e\u5730\u300d\u3067\u3082\u3042\u308b\u3002","category":"\u540d\u6240","image":null},{"id":1585,"title":"\u6c5f\u6238\u65b9\uff08\u52dd\u6cbc\u5bbf\uff09","lat":35.658481,"lng":138.735217,"description":"\u9db4\u702c\u5bbf\u307e\u3067\u7d044km","category":"\u898b\u4ed8","image":null},{"id":1586,"title":"\u52dd\u6cbc\u5bbf","lat":35.661146,"lng":138.732188,"description":"\u5143\u548c\u56db\u5e74\uff081618\u5e74\uff09\u306b\u65b0\u8a2d\u3002\r\n\u9db4\u702c\u30fb\u99d2\u98fc\u5bbf\u3068\u6817\u539f\u5bbf\u306e\u9593\u306e\u8377\u7269\u30fb\u4eba\u306e\u7d99\u304e\u7acb\u3066\u3092\u884c\u3063\u305f\u3002\u7532\u5e9c\u76c6\u5730\u306e\u6771\u7aef\u306b\u4f4d\u7f6e\u3057\u3066\u3044\u308b\u3053\u3068\u304b\u3089\u3001\u5ce1\u6771\u5730\u65b9\u306e\u7269\u8cc7\u96c6\u7a4d\u306e\u5834\u3068\u3057\u3066\u6804\u3048\u305f\u3002\r\n\u307e\u305f\u52dd\u6cbc\u306f\u7532\u5dde\u3076\u3069\u3046\u767a\u7965\u306e\u5730\u3068\u3057\u3066\u3082\u77e5\u3089\u308c\u3066\u3044\u308b\u3002\r\n\r\n\u25ce\u672c\u96631\u8ed2\u3001\u8107\u672c\u96632\u8ed2\u3001\u65c5\u7c6023\u8ed2\r\n\r\n\u3010\u540d\u7269\u3011\r\n\u7279\u306b\u306a\u3057","category":"\u5bbf\u5834","image":null},{"id":1587,"title":"\u8acf\u8a2a\u65b9\uff08\u52dd\u6cbc\u5bbf\uff09","lat":35.664144,"lng":138.723313,"description":"\u6817\u539f\u5bbf\u307e\u3067\u7d042km","category":"\u898b\u4ed8","image":null},{"id":1588,"title":"\u7b49\u3005\u529b\u4e00\u91cc\u585a","lat":35.666074,"lng":138.714001,"description":"\u65e5\u672c\u6a4b\u304b\u308931\u756a\u76ee\u306e\u4e00\u91cc\u585a\r\n\r\n\u25cb\u75d5\u8de1\u306a\u3057\uff08\u3053\u306e\u3042\u305f\u308a\u3060\u3068\u63a8\u6e2c\uff09","category":"\u4e00\u91cc\u585a","image":null},{"id":1589,"title":"\u6c5f\u6238\u65b9\uff08\u6817\u539f\u5bbf\uff09","lat":35.664862,"lng":138.697845,"description":"\u52dd\u6cbc\u5bbf\u307e\u3067\u7d042km","category":"\u898b\u4ed8","image":null},{"id":1590,"title":"\u6817\u539f\u5bbf\uff08\u672c\u9663\u4e0d\u660e\uff09","lat":35.664887,"lng":138.695412,"description":"\u6817\u539f\u5bbf\u306f\u3001\u7532\u5dde\u8857\u9053\u306e\u4e2d\u3067\u306f\u898f\u6a21\u304c\u5927\u304d\u304b\u3063\u305f\u3088\u3046\u3060\u304c\u3001\u660e\u6cbb\u56db\u5341\u5e74\uff081907\u5e74\uff09\u306e\u5927\u6c34\u5bb3\u3067\u65e5\u5ddd\u306e\u5824\u9632\u304c\u6c7a\u58ca\u3002\u6817\u539f\u96c6\u843d\u306f\u6d41\u3055\u308c\u3001\u65e7\u7532\u5dde\u8857\u9053\u3082\u57cb\u3082\u308c\u3066\u3057\u307e\u3063\u305f\u3002\r\n\u73fe\u5728\u306f\u3001\u5927\u6b63\u304b\u3089\u662d\u548c\u306b\u304b\u3051\u3066\u4fee\u5fa9\u3057\u305f\u753a\u4e26\u307f\u304c\u6b8b\u308b\u3002\r\n\r\n\u25ce\u672c\u96631\u8ed2\u3001\u8107\u672c\u96631\u8ed2\u3001\u65c5\u7c6020\u8ed2\r\n\r\n\u3010\u540d\u7269\u3011\r\n\u7279\u306b\u306a\u3057\u3002","category":"\u5bbf\u5834","image":null},{"id":1591,"title":"\u8acf\u8a2a\u65b9\uff08\u6817\u539f\u5bbf\uff09","lat":35.664063,"lng":138.693733,"description":"\u77f3\u548c\u5bbf\u307e\u3067\u7d046km","category":"\u898b\u4ed8","image":null},{"id":1592,"title":"\u5357\u7530\u4e2d\u4e00\u91cc\u585a","lat":35.661872,"lng":138.672619,"description":"\u65e5\u672c\u6a4b\u304b\u308932\u756a\u76ee\u306e\u4e00\u91cc\u585a\r\n\r\n\u25cb\u75d5\u8de1\u306a\u3057\uff08\u3053\u306e\u3042\u305f\u308a\u3060\u3068\u63a8\u6e2c\uff09","category":"\u4e00\u91cc\u585a","image":null},{"id":1593,"title":"\u6c5f\u6238\u65b9\uff08\u77f3\u548c\u5bbf\uff09","lat":35.650358,"lng":138.641457,"description":"\u6817\u539f\u5bbf\u307e\u3067\u7d046km","category":"\u898b\u4ed8","image":null},{"id":1594,"title":"\u77f3\u548c\u5bbf\uff08\u5f8c\u85e4\u672c\u9663\uff09","lat":35.650156,"lng":138.63848,"description":"\u6b66\u7530\u6c0f\u306e\u6545\u5730\u3002\u6b66\u7530\u4fe1\u7384\u306e\u7236\u4fe1\u864e\u304c\u8e91\u8e85\u30b1\u5d0e\uff08\u3064\u3064\u3058\u304c\u3055\u304d\uff09\u306b\u57ce\u3092\u7bc9\u304f\u307e\u3067\u306f\u3001\u3053\u3053\u77f3\u548c\u304c\u6b66\u7530\u6c0f\u306e\u672c\u62e0\u5730\u3067\u3042\u308a\u3001\u7532\u6590\u56fd\u306e\u653f\u6cbb\u306e\u4e2d\u5fc3\u5730\u3067\u3082\u3042\u3063\u305f\u3002\r\n\u662d\u548c\u4e09\u5341\u516d\u5e74\uff081961\u5e74\uff09\u3001\u3076\u3069\u3046\u7551\u304b\u3089\u7a81\u7136\u5927\u91cf\u306e\u6e29\u6cc9\u304c\u6e67\u304d\u51fa\u3057\u3001\u73fe\u5728\u306f\u6e29\u6cc9\u3067\u6709\u540d\u306a\u753a\u306b\u306a\u3063\u3066\u3044\u308b\u3002\r\n\r\n\u25ce\u672c\u96631\u8ed2\u3001\u8107\u672c\u96632\u8ed2\u3001\u65c5\u7c6018\u8ed2\r\n\r\n\u3010\u540d\u7269\u3011\r\n\u7279\u306b\u306a\u3057","category":"\u5bbf\u5834","image":null},{"id":1595,"title":"\u8acf\u8a2a\u65b9\uff08\u77f3\u548c\u5bbf\uff09","lat":35.650576,"lng":138.634349,"description":"\u7532\u5e9c\u67f3\u753a\u5bbf\u307e\u3067\u7d046km","category":"\u898b\u4ed8","image":null},{"id":1596,"title":"\u77f3\u548c\u4e00\u91cc\u585a","lat":35.651631,"lng":138.632545,"description":"\u65e5\u672c\u6a4b\u304b\u308933\u756a\u76ee\u306e\u4e00\u91cc\u585a\r\n\r\n\u25cb\u75d5\u8de1\u306a\u3057\uff08\u3053\u306e\u3042\u305f\u308a\u3060\u3068\u63a8\u6e2c\uff09","category":"\u4e00\u91cc\u585a","image":null},{"id":1597,"title":"\u677f\u57a3\u4e00\u91cc\u585a","lat":35.658876,"lng":138.592375,"description":"\u65e5\u672c\u6a4b\u304b\u308934\u756a\u76ee\u306e\u4e00\u91cc\u585a\r\n\r\n\u25cb\u75d5\u8de1\u306a\u3057\uff08\u3053\u306e\u3042\u305f\u308a\u3060\u3068\u63a8\u6e2c\uff09","category":"\u4e00\u91cc\u585a","image":null},{"id":1598,"title":"\u6c5f\u6238\u65b9\uff08\u7532\u5e9c\u67f3\u753a\u5bbf\uff09","lat":35.660771,"lng":138.572325,"description":"\u77f3\u548c\u5bbf\u307e\u3067\u7d046km","category":"\u898b\u4ed8","image":null},{"id":1599,"title":"\u7532\u5e9c\u67f3\u753a\u5bbf\uff08\u5bcc\u58eb\u4e95\u5c4b\u672c\u9663\uff09","lat":35.659547,"lng":138.572256,"description":"\u6b66\u7530\u4fe1\u7384\u306e\u7236\u4fe1\u864e\u304c\u6c38\u4e16\u5341\u516d\u5e74\uff081519\u5e74\uff09\u306b\u77f3\u548c\u304b\u3089\u79fb\u308a\u3001\u8e91\u8e85\u30b1\u5d0e\u306b\u5c45\u9928\u3092\u69cb\u3048\u305f\u306e\u306b\u59cb\u307e\u308b\u3002\u6b66\u7530\u5bb6\u306e\u6ec5\u4ea1\u5f8c\u3001\u5fb3\u5ddd\u5bb6\u5eb7\u304c\u5165\u308a\u3001\u6c5f\u6238\u6642\u4ee3\u306f\u5e55\u5e9c\u306e\u76f4\u8f44\u5730\uff08\u5929\u9818\uff09\u3068\u306a\u3063\u305f\u3002\u7532\u5e9c\u57ce\u306e\u57ce\u4e0b\u753a\u3068\u3057\u3066\u306e\u8cd1\u308f\u3063\u305f\u5bbf\u5834\u753a\u3067\u3042\u308b\u3002\u5f53\u521d\u306f\u7532\u5dde\u8857\u9053\u306e\u7d42\u70b9\u3060\u3063\u305f\u304c\u3001\u5f8c\u306b\u3053\u3053\u304b\u3089\u4e0b\u8acf\u8a2a\u307e\u3067\u5ef6\u9577\u3055\u308c\u305f\u3002\r\n\r\n\u25ce\u672c\u96631\u8ed2\u3001\u8107\u672c\u96631\u8ed2\u3001\u65c5\u7c6021\u8ed2\r\n\r\n\u3010\u540d\u7269\u3011\r\n\u307b\u3046\u3068\u3046","category":"\u5bbf\u5834","image":null},{"id":1600,"title":"\u7532\u6590\u5584\u5149\u5bfa","lat":35.665777,"lng":138.592867,"description":"\u6b66\u7530\u4fe1\u7384\u3068\u4e0a\u6749\u8b19\u4fe1\u306e\u6fc0\u6226\u3001\u5ddd\u4e2d\u5cf6\u306e\u5408\u6226\u3067\u3001\u4fe1\u5dde\u9577\u91ce\u5584\u5149\u5bfa\u306e\u706b\u707d\u3092\u6050\u308c\u305f\u6b66\u7530\u4fe1\u7384\u304c\u3001\u7532\u6590\u306b\u79fb\u8a2d\u3059\u308b\u76ee\u7684\u3067\u5efa\u8a2d\u3055\u308c\u305f\u3002\r\n\u5b9d\u66a6\u56db\u5e74\uff081754\u5e74\uff09\u306e\u5927\u706b\u3067\u713c\u5931\u3002\r\n\u73fe\u5728\u306e\u91d1\u5802\uff08\u56fd\u91cd\u6587\uff09\u306f\u5bdb\u653f\u516b\u5e74\uff081796\u5e74\uff09\u306b\u5b8c\u6210\u3057\u305f\u3082\u306e\u3002\r\n\u5802\u3005\u305f\u308b\u666f\u89b3\u3092\u6301\u3064\u6728\u9020\u4f3d\u85cd\u306f\u6771\u65e5\u672c\u6709\u6570\u306e\u5efa\u7bc9\u7269\u3067\u3042\u308b\u3002\r\n\u5883\u5185\u306e\u6c60\u7554\u306b\u306f\u3001\u82ad\u8549\u306e\u53e5\u7891\u304c\u3042\u308b\u3002","category":"\u540d\u6240","image":null},{"id":1601,"title":"\u5370\u50b3\u5c4b","lat":35.660511,"lng":138.574718,"description":"\u5929\u6b63\u5341\u5e74\uff081582\u5e74\uff09\u5275\u696d\u3002\r\n\u4ee5\u6765400\u5e74\u3001\u7532\u5dde\u5370\u50b3\u306e\u6280\u6cd5\u30fb\u4f1d\u7d71\u3092\u4eca\u306b\u4f1d\u3048\u3066\u3044\u308b\u3002\r\n\u53e4\u6765\u65e5\u672c\u3067\u9e7f\u9769\u3092\u7528\u3044\u305f\u7269\u306b\u306f\u6b66\u5177\u3001\u7532\u5191\u3001\u888b\u7269\u3001\u7bb1\u306a\u3069\u69d8\u3005\u306a\u3082\u306e\u304c\u3042\u308b\u3002\r\n\u7532\u5dde\u306f\u3001\u53e4\u304f\u304b\u3089\u6f06\u3084\u9e7f\u9769\u3092\u7523\u51fa\u3057\u3066\u304a\u308a\u3001\u7532\u5dde\u5370\u50b3\u304c\u751f\u307e\u308c\u80b2\u3064\u306b\u306f\u6700\u9069\u306e\u5730\u3060\u3063\u305f\u3088\u3046\u3060\u3002","category":"\u540d\u6240","image":null},{"id":1602,"title":"\u7532\u5e9c\u57ce","lat":35.665193,"lng":138.571329,"description":"\u6b66\u7530\u6c0f\u6ec5\u4ea1\u5f8c\u3001\u7532\u6590\u3092\u9818\u3057\u305f\u5fb3\u5ddd\u6c0f\u3084\u8c4a\u81e3\u7cfb\u5927\u540d\u304c\u7532\u5e9c\u57ce\u3092\u7bc9\u57ce\u3059\u308b\u3002\r\n\u8c4a\u81e3\u653f\u6a29\u3067\u306f\u5fb3\u5ddd\u5bb6\u5eb7\u3092\u727d\u5236\u3059\u308b\u8981\u6240\u3001\u6c5f\u6238\u6642\u4ee3\u3067\u306f\u5c06\u8ecd\u5bb6\u306b\u6700\u3082\u8fd1\u3044\u89aa\u85e9\uff08\u7532\u5e9c\u85e9\uff09\u306e\u57ce\u3068\u306a\u3063\u305f\u3002\r\n\u4ea8\u4fdd\u5341\u4e8c\u5e74\uff081727\u5e74)\u306e\u5927\u706b\u3067\u672c\u4e38\u3092\u713c\u5931\u3057\u3001\u4ee5\u964d\u518d\u5efa\u3055\u308c\u308b\u3053\u3068\u306f\u306a\u304b\u3063\u305f\u304c\u3001\u57ce\u3068\u3057\u3066\u306e\u6a5f\u80fd\u306f\u5e55\u672b\u307e\u3067\u7d9a\u3044\u3066\u308b\u3002\r\n\u660e\u6cbb\u306b\u5165\u3063\u3066\u5ec3\u57ce\u3068\u306a\u308a\u3001\u307b\u3068\u3093\u3069\u306e\u5efa\u7269\u306f\u53d6\u308a\u58ca\u3055\u308c\u3066\u3057\u307e\u3063\u305f\u3002","category":"\u540d\u6240","image":null},{"id":1603,"title":"\u8e91\u8e85\u30f6\u5d0e\u9928","lat":35.686162,"lng":138.57665,"description":"\u6226\u56fd\u6642\u4ee3\u306b\u7bc9\u304b\u308c\u305f\u6b66\u7530\u6c0f\u306e\u672c\u62e0\u5730\u3002\r\n\u5c45\u9928\u3068\u5bb6\u81e3\u56e3\u5c4b\u6577\u3084\u57ce\u4e0b\u753a\u304c\u4e00\u4f53\u3068\u306a\u3063\u3066\u3044\u305f\u3002\u4fe1\u864e\u3001\u6674\u4fe1\uff08\u4fe1\u7384\uff09\u3001\u52dd\u983c3\u4ee3\u306e60\u5e74\u4f59\u308a\u306b\u308f\u305f\u3063\u3066\u5e9c\u4e2d\u3068\u3057\u3066\u6a5f\u80fd\u3057\u3066\u3044\u305f\u3002\u4e09\u65b9\u3092\u5c71\u306b\u56f2\u307e\u308c\u3001\u5357\u306b\u7532\u5e9c\u76c6\u5730\u3092\u4e00\u671b\u306e\u3082\u3068\u306b\u53ce\u3081\u308b\u300c\u8e91\u8e85\u30b1\u5d0e\u300d\u306b\u5efa\u3064\u3002\u6c5f\u6238\u6642\u4ee3\u306b\u5165\u308a\u57ce\u4e0b\u753a\u306f\u7532\u5e9c\u57ce\u3092\u4e2d\u5fc3\u306b\u79fb\u3063\u305f\u3002\u73fe\u5728\u3001\u8de1\u5730\u306b\u306f\u6b66\u7530\u795e\u793e\u304c\u3042\u308a\u3001\u307e\u305f\u3001\u300c\u6b66\u7530\u6c0f\u9928\u8de1\u300d\u3068\u3057\u3066\u56fd\u306e\u53f2\u8de1\u306b\u6307\u5b9a\u3055\u308c\u3066\u3044\u308b\u3002\u8cc7\u6599\u4fa1\u5024\u306e\u9ad8\u3044\u4e2d\u4e16\u306e\u57ce\u9928\u8de1\u3067\u3042\u308b\u3002","category":"\u540d\u6240","image":null},{"id":1604,"title":"\u8acf\u8a2a\u65b9\uff08\u7532\u5e9c\u67f3\u753a\u5bbf\uff09","lat":35.657995,"lng":138.570478,"description":"\u97ee\u5d0e\u5bbf\u307e\u3067\u7d0413km","category":"\u898b\u4ed8","image":null},{"id":1605,"title":"\u8352\u5ddd\u6a4b\u4e00\u91cc\u585a","lat":35.65936,"lng":138.557598,"description":"\u65e5\u672c\u6a4b\u304b\u308935\u756a\u76ee\u306e\u4e00\u91cc\u585a\r\n\r\n\u25cb\u75d5\u8de1\u306a\u3057\uff08\u3053\u306e\u3042\u305f\u308a\u3060\u3068\u63a8\u6e2c\uff09","category":"\u4e00\u91cc\u585a","image":null},{"id":1606,"title":"\u7adc\u738b\u4e00\u91cc\u585a","lat":35.669699,"lng":138.515096,"description":"\u65e5\u672c\u6a4b\u304b\u308936\u756a\u76ee\u306e\u4e00\u91cc\u585a\r\n\r\n\u25cb\u75d5\u8de1\u306a\u3057\uff08\u3053\u306e\u3042\u305f\u308a\u3060\u3068\u63a8\u6e2c\uff09","category":"\u4e00\u91cc\u585a","image":null},{"id":1607,"title":"\u5fd7\u7530\u4e00\u91cc\u585a","lat":35.689587,"lng":138.480868,"description":"\u65e5\u672c\u6a4b\u304b\u308937\u756a\u76ee\u306e\u4e00\u91cc\u585a\r\n\r\n\u25cb\u75d5\u8de1\u306a\u3057\uff08\u3053\u306e\u3042\u305f\u308a\u3060\u3068\u63a8\u6e2c\uff09","category":"\u4e00\u91cc\u585a","image":null},{"id":1608,"title":"\u6c5f\u6238\u65b9\uff08\u97ee\u5d0e\u5bbf\uff09","lat":35.704022,"lng":138.453909,"description":"\u7532\u5e9c\u67f3\u753a\u5bbf\u307e\u3067\u7d0413km","category":"\u898b\u4ed8","image":null},{"id":1609,"title":"\u97ee\u5d0e\u5bbf","lat":35.706954,"lng":138.450804,"description":"\u5bcc\u58eb\u5ddd\u6c34\u904b\u306e\u7d42\u70b9\u306b\u5f53\u305f\u308b\u305f\u3081\u3001\u6d77\u7523\u7269\u306e\u9678\u63da\u3052\u3001\u5e74\u8ca2\u7c73\u306e\u7a4d\u307f\u51fa\u3057\u306a\u3069\u7269\u8cc7\u306e\u96c6\u6563\u5730\u3068\u3057\u3066\u8cd1\u308f\u3063\u305f\u5bbf\u5834\u3002\u97ee\u5d0e\u3068\u306f\u3001\u97ee\u306e\u8449\u306e\u3088\u3046\u306b\u7d30\u9577\u3044\u300c\u4e03\u91cc\u5ca9\u300d\u306e\u53f0\u5730\u306e\u5148\u7aef\u306b\u4f4d\u7f6e\u3059\u308b\u3053\u3068\u304b\u3089\u3068\u3082\u8a00\u3046\u3002\u5bbf\u5834\u306e\u7279\u5fb4\u306f\u5bb6\u304c\u9053\u8def\u306b\u5bfe\u3057\u3066\u659c\u3081\u306b\u5efa\u3066\u3089\u308c\u3066\u3044\u305f\u3002\u4eca\u3067\u3082\u305d\u306e\u9762\u5f71\u304c\u3001\u50c5\u304b\u3060\u304c\u6b8b\u3063\u3066\u3044\u308b\u3002\r\n\r\n\u25ce\u672c\u96631\u8ed2\u3001\u8107\u672c\u96630\u8ed2\u3001\u65c5\u7c6017\u8ed2\r\n\r\n\u3010\u540d\u7269\u3011\r\n\u7279\u306b\u306a\u3057","category":"\u5bbf\u5834","image":null},{"id":1610,"title":"\u8acf\u8a2a\u65b9\uff08\u97ee\u5d0e\u5bbf\uff09","lat":35.710684,"lng":138.445894,"description":"\u53f0\u30b1\u539f\u5bbf\u307e\u3067\u7d0415km","category":"\u898b\u4ed8","image":null},{"id":1611,"title":"\u4e03\u91cc\u5ca9","lat":35.713608,"lng":138.443323,"description":"\u97ee\u5d0e\u5e02\u306e\u4e2d\u5fc3\u5730\u304b\u3089\u5317\u675c\u5e02\u306b\u304b\u3051\u3066\u516b\u30f6\u5cb3\u306e\u706b\u7815\u6d41\u304c\u5f62\u6210\u3057\u305f\u53f0\u5730\u3002\r\n\u72ed\u304f\u306f\u91dc\u7121\u5ddd\u306e\u6d78\u98df\u306b\u3088\u308a\u9020\u3089\u308c\u305f\u3001\u5ddd\u6cbf\u3044\u306b\u9023\u306a\u308b10\uff4d\u304b\u308940\uff4d\u306e\u65ad\u5d16\u3002\r\n\u5357\u5317\u306e\u9577\u3055\u304c\u7d04\u4e03\u91cc\uff08\u7d04\uff12\uff18\uff2b\uff4d\uff09\u3042\u308b\u3053\u3068\u304b\u3089\u4e03\u91cc\u5ca9\u3068\u540d\u4ed8\u3051\u3089\u308c\u305f\u3002","category":"\u540d\u6240","image":null},{"id":1612,"title":"\u97ee\u5d0e\u4e00\u91cc\u585a","lat":35.711173,"lng":138.445401,"description":"\u65e5\u672c\u6a4b\u304b\u308938\u756a\u76ee\u306e\u4e00\u91cc\u585a\r\n\r\n\u25cb\u75d5\u8de1\u306a\u3057\uff08\u3053\u306e\u3042\u305f\u308a\u3060\u3068\u63a8\u6e2c\uff09","category":"\u4e00\u91cc\u585a","image":null},{"id":1613,"title":"\u7956\u6bcd\u77f3\u4e00\u91cc\u585a","lat":35.729997,"lng":138.424701,"description":"\u65e5\u672c\u6a4b\u304b\u308939\u756a\u76ee\u306e\u4e00\u91cc\u585a\r\n\r\n\u25cb\u75d5\u8de1\u306a\u3057\uff08\u3053\u306e\u3042\u305f\u308a\u3060\u3068\u63a8\u6e2c\uff09","category":"\u4e00\u91cc\u585a","image":null},{"id":1614,"title":"\u4e0b\u5186\u4e95\u4e00\u91cc\u585a","lat":35.756901,"lng":138.402111,"description":"\u65e5\u672c\u6a4b\u304b\u308940\u756a\u76ee\u306e\u4e00\u91cc\u585a\r\n\r\n\u25cb\u75d5\u8de1\u306a\u3057\uff08\u4e0d\u660e\uff09","category":"\u4e00\u91cc\u585a","image":null},{"id":1615,"title":"\u6b66\u5ddd\u4e00\u91cc\u585a\uff08\u516d\u91cc\u585a\uff09","lat":35.778963,"lng":138.392348,"description":"\u65e5\u672c\u6a4b\u304b\u308941\u756a\u76ee\u306e\u4e00\u91cc\u585a\r\n\r\n\u25cb\u76ee\u5370\u3042\u308a","category":"\u4e00\u91cc\u585a","image":null},{"id":1616,"title":"\u842c\u4f11\u9662","lat":35.790003,"lng":138.368017,"description":"\u9577\u677e\u5c71\u842c\u4f11\u9662\u306f\u3001\u5143\u4e80\u4e8c\u5e74(1571\u5e74)\u958b\u5275\u3002\u56fd\u6307\u5b9a\u5929\u7136\u8a18\u5ff5\u7269\u300c\u821e\u9db4\u677e\u300d\u304c\u3042\u3063\u305f\u4e8b\u3067\u6709\u540d\u3067\u3042\u308b\u3002\r\n\u767d\u7802\u306e\u65e5\u672c\u5ead\u5712\u304c\u7f8e\u3057\u3044\u3002\r\n\u6a39\u9f62\u7d04\uff14\uff15\uff10\u5e74\u3068\u3082\u3044\u308f\u308c\u305f\u4e8c\u4ee3\u76ee\u306e\u300c\u821e\u9db4\u677e\u300d\u306f\u3001\u5e73\u6210\u5341\u516b\u5e74\uff082006\u5e74\uff09\u30de\u30c4\u30af\u30a4\u30e0\u30b7\u306e\u88ab\u5bb3\u3067\u67af\u6b7b\u3057\u3066\u3057\u307e\u3063\u305f\u3002\r\n\u4eca\u306f\u4e09\u4ee3\u76ee\u304c\u690d\u3048\u3089\u308c\u3066\u3044\u308b\u3002","category":"\u540d\u6240","image":null},{"id":1617,"title":"\u4e09\u5439\u4e00\u91cc\u585a\uff08\u4e03\u91cc\u585a\uff09","lat":35.799261,"lng":138.358438,"description":"\u65e5\u672c\u6a4b\u304b\u308942\u756a\u76ee\u306e\u4e00\u91cc\u585a\r\n\r\n\u25cb\u76ee\u5370\u3042\u308a","category":"\u4e00\u91cc\u585a","image":null},{"id":1618,"title":"\u6c5f\u6238\u65b9\uff08\u53f0\u30f6\u539f\u5bbf\uff09","lat":35.806725,"lng":138.347907,"description":"\u97ee\u5d0e\u5bbf\u307e\u3067\u7d0415km","category":"\u898b\u4ed8","image":null},{"id":1619,"title":"\u53f0\u30f6\u539f\u5bbf\uff08\u5c0f\u677e\u5c4b\u672c\u9663\uff09","lat":35.807752,"lng":138.343885,"description":"\u5143\u548c\u56db\u5e74\uff081618\u5e74\uff09\u306b\u5bbf\u3068\u306a\u3063\u305f\u304c\u3001\u4ee5\u524d\u304b\u3089\u4ea4\u901a\u96c6\u843d\u3068\u3057\u3066\u306e\u6a5f\u80fd\u3092\u679c\u305f\u3057\u3066\u3044\u305f\u3002\u9ad8\u304f\u5e73\u3089\u3067\u53f0\u76e4\u306e\u3088\u3046\u3067\u3042\u3063\u305f\u305f\u3081\u3001\u53f0\u30f6\u539f\u3068\u3044\u3046\u5730\u540d\u306b\u306a\u3063\u305f\u3002\u91dc\u7121\u5ddd\u3068\u5c3e\u767d\u5ddd\u306b\u631f\u307e\u308c\u305f\u5c71\u9593\u306e\u5bbf\u5834\u3067\u3001\u7de9\u3084\u304b\u306a\u5742\u9053\u306e\u4e21\u5074\u306b\u306f\u53e4\u3044\u5bb6\u304c\u591a\u304f\u3001\u300e\u65e5\u672c\u306e\u9053\u767e\u9078\u300f\u306b\u3082\u9078\u3070\u308c\u305f\u98a8\u60c5\u3042\u308b\u753a\u4e26\u307f\u3067\u3042\u308b\u3002\r\n\r\n\u25ce\u672c\u96631\u8ed2\u3001\u8107\u672c\u96630\u8ed2\u3001\u65c5\u7c6014\u8ed2\r\n\r\n\u3010\u540d\u7269\u3011\r\n\u7279\u306b\u306a\u3057","category":"\u5bbf\u5834","image":null},{"id":1620,"title":"\u5c71\u68a8\u9298\u91b8","lat":35.807877,"lng":138.342898,"description":"\u4e09\u767e\u5e74\u306e\u4f1d\u7d71\u3092\u8a87\u308b\u9298\u9152\u4e03\u8ce2\u306e\u8535\u5143\u3002\r\n\u660e\u6cbb\u5929\u7687\u306e\u884c\u5728\u6240\u306b\u3082\u306a\u3063\u305f\u3001\u304b\u3064\u3066\u306e\u8107\u672c\u9663\u3002","category":"\u540d\u6240","image":null},{"id":1621,"title":"\u53f0\u30f6\u539f\u4e00\u91cc\u585a","lat":35.808109,"lng":138.340367,"description":"\u65e5\u672c\u6a4b\u304b\u308943\u756a\u76ee\u306e\u4e00\u91cc\u585a\r\n\r\n\u25cb\u76ee\u5370\u3042\u308a","category":"\u4e00\u91cc\u585a","image":null},{"id":1622,"title":"\u8acf\u8a2a\u65b9\uff08\u53f0\u30f6\u539f\u5bbf\uff09","lat":35.809224,"lng":138.334873,"description":"\u6559\u6765\u77f3\u5bbf\u307e\u3067\u7d044.5km","category":"\u898b\u4ed8","image":null},{"id":1623,"title":"\u6c5f\u6238\u65b9\uff08\u6559\u6765\u77f3\u5bbf\uff09","lat":35.837721,"lng":138.305098,"description":"\u53f0\u30b1\u539f\u5bbf\u307e\u3067\u7d044.5km","category":"\u898b\u4ed8","image":null},{"id":1624,"title":"\u6559\u6765\u77f3\u5bbf\uff08\u6cb3\u897f\u672c\u9663\uff09","lat":35.839791,"lng":138.302944,"description":"\u6559\u6765\u77f3\u5bbf\u306f\u3001\u4e0b\u6559\u6765\u77f3\u304c\u672c\u5bbf\u3067\u4e0a\u6559\u6765\u77f3\u306f\u52a0\u5bbf\u3067\u3042\u3063\u305f\u3002\u6751\u306e\u897f\u306b\u6559\u6765\u77f3\u304c\u3042\u308a\u3001\u6614\u306f\u77f3\u306e\u4e0a\u306b\u5c0f\u7960\u304c\u3042\u308a\u65e5\u672c\u6b66\u5c0a\u3092\u7940\u3063\u3066\u3042\u3063\u305f\u3002\u73fe\u5728\u306f\u8acf\u8a2a\u795e\u793e\u3078\u79fb\u8a2d\u3055\u308c\u3066\u3044\u308b\u3002\u65e5\u672c\u6b66\u5c0a\u304c\u3053\u306e\u77f3\u306e\u4e0a\u3067\u4f11\u606f\u3057\u305f\u3068\u3044\u308f\u308c\u3001\u6751\u4eba\u304c\u7d4c\uff08\u3078\uff09\u3066\u6765\u77f3\uff08\u3053\u3044\u3057\uff09\u3068\u547c\u3073\u3001\u7d4c\u3092\u6559\u3068\u8aa4\u8a18\u3057\u305f\u3082\u306e\u3068\u4f1d\u3048\u3089\u308c\u3066\u3044\u308b\u3002\r\n\r\n\u25ce\u672c\u96631\u8ed2\u3001\u8107\u672c\u96631\u8ed2\u3001\u65c5\u7c607\u8ed2\r\n\r\n\u3010\u540d\u7269\u3011\r\n\u7279\u306b\u306a\u3057","category":"\u5bbf\u5834","image":null},{"id":1625,"title":"\u8acf\u8a2a\u65b9\uff08\u6559\u6765\u77f3\u5bbf\uff09","lat":35.841294,"lng":138.303108,"description":"\u8526\u6728\u5bbf\u307e\u3067\u7d044.5km","category":"\u898b\u4ed8","image":null},{"id":1626,"title":"\u8352\u7530\u4e00\u91cc\u585a","lat":35.832892,"lng":138.306897,"description":"\u65e5\u672c\u6a4b\u304b\u308944\u756a\u76ee\u306e\u4e00\u91cc\u585a\r\n\r\n\u25cb\u75d5\u8de1\u306a\u3057\uff08\u3053\u306e\u3042\u305f\u308a\u3060\u3068\u63a8\u6e2c\uff09","category":"\u4e00\u91cc\u585a","image":null},{"id":1627,"title":"\u5c71\u53e3\u95a2\u6240","lat":35.855199,"lng":138.290916,"description":"\u7532\u5dde24\u30f6\u6240\u306e\u53e3\u7559\u756a\u6240\u306e\u4e00\u3064\u3002\u4fe1\u5dde\u53e3\u3092\u898b\u5f35\u3063\u305f\u56fd\u5883\u306e\u53e3\u7559\u756a\u6240\u3067\u3042\u308b\u3002\r\n\u5929\u6587\u5341\u5e74\uff081546\u5e74\uff09\u306e\u6b66\u7530\u4fe1\u7384\u306e\u4f0a\u90a3\u9032\u653b\u306e\u969b\u8a2d\u3051\u3089\u308c\u305f\u3068\u3044\u3046\u4f1d\u627f\u304c\u3042\u308b\u304c\u306f\u3063\u304d\u308a\u3057\u3066\u3044\u306a\u3044\u3002\r\n\u9053\u3092\u631f\u3093\u3067\u4e21\u5074\u306b\u756a\u6240\u304c\u3042\u3063\u305f\u3089\u3057\u3044\u304c\u3001\u4eca\u306f\u897f\u756a\u6240\u8de1\u306e\u5965\u306b\u6c5f\u6238\u6642\u4ee3\u306e\u8535\u304c\uff11\u68df\u6b8b\u308b\u306e\u307f\u3067\u3042\u308b\u3002","category":"\u540d\u6240","image":null},{"id":1628,"title":"\u4e0a\u6559\u6765\u77f3\u4e00\u91cc\u585a","lat":35.858507,"lng":138.284941,"description":"\u65e5\u672c\u6a4b\u304b\u308945\u756a\u76ee\u306e\u4e00\u91cc\u585a\r\n\r\n\u25cb\u75d5\u8de1\u306a\u3057\uff08\u3053\u306e\u3042\u305f\u308a\u3060\u3068\u63a8\u6e2c\uff09","category":"\u4e00\u91cc\u585a","image":null},{"id":1629,"title":"\u91dc\u7121\u5ddd\u3000-\u56fd\u5883-","lat":35.859904,"lng":138.280137,"description":"\u7532\u6590\u56fd\u3068\u4fe1\u6fc3\u56fd\u3068\u306e\u56fd\u5883\u3002\r\n\u300c\u56fd\u754c\u6a4b\u300d\r\n\u4e03\u91cc\u5ca9\u3082\u3053\u3053\u3067\u7d42\u308f\u308a\u3002","category":"\u540d\u6240","image":null},{"id":1630,"title":"\u6c5f\u6238\u65b9\uff08\u8526\u6728\u5bbf\uff09","lat":35.868657,"lng":138.274065,"description":"\u6559\u6765\u77f3\u5bbf\u307e\u3067\u7d044.5km","category":"\u898b\u4ed8","image":null},{"id":1631,"title":"\u8526\u6728\u5bbf\uff08\u5927\u962a\u5c4b\u672c\u9663\uff09","lat":35.869561,"lng":138.272827,"description":"\u6176\u9577\u5341\u516d\u5e74\uff081611\u5e74\uff09\u306b\u5bbf\u99c5\u3068\u306a\u308b\u3002\u53e4\u304f\u304b\u3089\u3042\u308b\u6751\u3067\u306f\u306a\u304f\u3001\u65b0\u3057\u3044\u571f\u5730\u306b\u8a08\u753b\u3055\u308c\u305f\u306e\u3067\u3001\u7a00\u306b\u898b\u308b\u5b8c\u5099\u3057\u305f\u5730\u5f62\u3068\u306a\u3063\u3066\u3044\u308b\u3002\u5357\u5317\u306e\u5165\u53e3\u306b\u306f\u685d\u5f62\u8def\u304c\u8a2d\u3051\u3089\u308c\u3001\u5b89\u5168\u9632\u885b\u306e\u5f79\u5272\u3092\u679c\u305f\u3057\u3066\u304d\u305f\u3002\u5ea6\u3005\u306e\u5927\u706b\u306b\u898b\u821e\u308f\u308c\u305f\u304c\u3001\u73fe\u5728\u3082\u6c5f\u6238\u6642\u4ee3\u306e\u606f\u5439\u3092\u611f\u3058\u308b\u3053\u3068\u304c\u51fa\u6765\u308b\u3002\r\n\r\n\u25ce\u672c\u96631\u8ed2\u3001\u8107\u672c\u96630\u8ed2\u3001\u65c5\u7c6015\u8ed2\r\n\r\n\u3010\u540d\u7269\u3011\r\n\u7279\u306b\u306a\u3057","category":"\u5bbf\u5834","image":null},{"id":1632,"title":"\u8acf\u8a2a\u65b9\uff08\u8526\u6728\u5bbf\uff09","lat":35.871197,"lng":138.270226,"description":"\u91d1\u6ca2\u5bbf\u307e\u3067\u7d0412km","category":"\u898b\u4ed8","image":null},{"id":1633,"title":"\u5e73\u5ca1\u4e00\u91cc\u585a","lat":35.88192,"lng":138.258122,"description":"\u65e5\u672c\u6a4b\u304b\u308946\u756a\u76ee\u306e\u4e00\u91cc\u585a\r\n\r\n\u25cb\u76ee\u5370\u3042\u308a","category":"\u4e00\u91cc\u585a","image":null},{"id":1634,"title":"\u91cd\u4fee\u4e00\u91cc\u585a","lat":35.904952,"lng":138.230846,"description":"\u65e5\u672c\u6a4b\u304b\u308947\u756a\u76ee\u306e\u4e00\u91cc\u585a\r\n\r\n\u25cb\u76ee\u5370\u3042\u308a","category":"\u4e00\u91cc\u585a","image":null},{"id":1635,"title":"\u5fa1\u5c04\u5c71\u795e\u6238\u4e00\u91cc\u585a","lat":35.932123,"lng":138.204208,"description":"\u65e5\u672c\u6a4b\u304b\u308948\u756a\u76ee\u306e\u4e00\u91cc\u585a\r\n\r\n\u25cb\u4e21\u5074\u73fe\u5b58","category":"\u4e00\u91cc\u585a","image":null},{"id":1636,"title":"\u6c5f\u6238\u65b9\uff08\u91d1\u6ca2\u5bbf\uff09","lat":35.945631,"lng":138.192712,"description":"\u8526\u6728\u5bbf\u307e\u3067\u7d0412km","category":"\u898b\u4ed8","image":null},